{
  "resumen": {
    "total_lineas": 2,
    "total_estaciones": 530,
    "total_accesos": 351,
    "total_ascensores": 113
  },
  "lineas": {
    "4": {
      "estaciones": {
        "par_4_1": {
          "nombre": "PLAZA DE CASTILLA",
          "descripcion": "Paseo de la Castellana 189",
          "tipo": "estacion_principal",
          "accesos": [],
          "ascensores": [],
          "accesible": false,
          "parent_station": "est_90_21",
          "lat": "40.4669",
          "lon": "-3.68917"
        },
        "par_4_10": {
          "nombre": "TRIBUNAL",
          "descripcion": "Calle de Fuencarral 81",
          "tipo": "estacion_principal",
          "accesos": [],
          "ascensores": [],
          "accesible": false,
          "parent_station": "",
          "lat": "40.42619",
          "lon": "-3.7011"
        },
        "par_4_11": {
          "nombre": "GRAN VIA",
          "descripcion": "Calle   Gran Vía 23",
          "tipo": "estacion_principal",
          "accesos": [],
          "ascensores": [],
          "accesible": false,
          "parent_station": "",
          "lat": "40.42001",
          "lon": "-3.7018"
        },
        "par_4_12": {
          "nombre": "SOL",
          "descripcion": "Plaza de la Puerta del Sol 6",
          "tipo": "estacion_principal",
          "accesos": [],
          "ascensores": [],
          "accesible": true,
          "parent_station": "est_90_58",
          "lat": "40.41688",
          "lon": "-3.70326"
        },
        "par_4_13": {
          "nombre": "TIRSO DE MOLINA",
          "descripcion": "Plaza de Tirso de Molina 7",
          "tipo": "estacion_principal",
          "accesos": [],
          "ascensores": [],
          "accesible": false,
          "parent_station": "",
          "lat": "40.41235",
          "lon": "-3.70466"
        },
        "par_4_14": {
          "nombre": "ANTON MARTIN",
          "descripcion": "Calle de Atocha 50",
          "tipo": "estacion_principal",
          "accesos": [],
          "ascensores": [],
          "accesible": false,
          "parent_station": "",
          "lat": "40.41246",
          "lon": "-3.69937"
        },
        "par_4_15": {
          "nombre": "ESTACION DEL ARTE",
          "descripcion": "Plaza del Emperador Carlos V 11",
          "tipo": "estacion_principal",
          "accesos": [],
          "ascensores": [],
          "accesible": false,
          "parent_station": "",
          "lat": "40.40885",
          "lon": "-3.69249"
        },
        "par_4_16": {
          "nombre": "ATOCHA",
          "descripcion": "Avda de la Ciudad de Barcelona 2 B",
          "tipo": "estacion_principal",
          "accesos": [],
          "ascensores": [],
          "accesible": true,
          "parent_station": "est_90_54",
          "lat": "40.40659",
          "lon": "-3.68938"
        },
        "par_4_17": {
          "nombre": "MENENDEZ PELAYO",
          "descripcion": "Avda de la Ciudad de Barcelona 23",
          "tipo": "estacion_principal",
          "accesos": [],
          "ascensores": [],
          "accesible": false,
          "parent_station": "",
          "lat": "40.40445",
          "lon": "-3.68098"
        },
        "par_4_18": {
          "nombre": "PACIFICO",
          "descripcion": "Avda de la Ciudad de Barcelona 79",
          "tipo": "estacion_principal",
          "accesos": [],
          "ascensores": [],
          "accesible": false,
          "parent_station": "",
          "lat": "40.40126",
          "lon": "-3.67514"
        },
        "par_4_19": {
          "nombre": "PUENTE DE VALLECAS",
          "descripcion": "Avda de la Albufera 1",
          "tipo": "estacion_principal",
          "accesos": [],
          "ascensores": [],
          "accesible": false,
          "parent_station": "",
          "lat": "40.39819",
          "lon": "-3.66906"
        },
        "par_4_2": {
          "nombre": "VALDEACEDERAS",
          "descripcion": "Calle de Bravo Murillo 332",
          "tipo": "estacion_principal",
          "accesos": [],
          "ascensores": [],
          "accesible": false,
          "parent_station": "",
          "lat": "40.46442",
          "lon": "-3.69506"
        },
        "par_4_20": {
          "nombre": "NUEVA NUMANCIA",
          "descripcion": "Avda de la Albufera 70",
          "tipo": "estacion_principal",
          "accesos": [],
          "ascensores": [],
          "accesible": false,
          "parent_station": "",
          "lat": "40.39554",
          "lon": "-3.66414"
        },
        "par_4_21": {
          "nombre": "PORTAZGO",
          "descripcion": "Avda de la Albufera 131",
          "tipo": "estacion_principal",
          "accesos": [],
          "ascensores": [],
          "accesible": false,
          "parent_station": "",
          "lat": "40.39266",
          "lon": "-3.65868"
        },
        "par_4_22": {
          "nombre": "BUENOS AIRES",
          "descripcion": "Avda de la Albufera 179",
          "tipo": "estacion_principal",
          "accesos": [],
          "ascensores": [],
          "accesible": false,
          "parent_station": "",
          "lat": "40.39156",
          "lon": "-3.65391"
        },
        "par_4_23": {
          "nombre": "ALTO DEL ARENAL",
          "descripcion": "Calle de Santillana del Mar 21",
          "tipo": "estacion_principal",
          "accesos": [],
          "ascensores": [],
          "accesible": true,
          "parent_station": "",
          "lat": "40.38977",
          "lon": "-3.64522"
        },
        "par_4_24": {
          "nombre": "MIGUEL HERNANDEZ",
          "descripcion": "Calle de León Felipe 4 A",
          "tipo": "estacion_principal",
          "accesos": [],
          "ascensores": [],
          "accesible": true,
          "parent_station": "",
          "lat": "40.38732",
          "lon": "-3.63951"
        },
        "par_4_25": {
          "nombre": "SIERRA DE GUADALUPE",
          "descripcion": "Avda de la Democracia 1",
          "tipo": "estacion_principal",
          "accesos": [],
          "ascensores": [],
          "accesible": true,
          "parent_station": "",
          "lat": "40.38216",
          "lon": "-3.62472"
        },
        "par_4_26": {
          "nombre": "VILLA DE VALLECAS",
          "descripcion": "Paseo de Federico García Lorca 2",
          "tipo": "estacion_principal",
          "accesos": [],
          "ascensores": [],
          "accesible": true,
          "parent_station": "",
          "lat": "40.3796",
          "lon": "-3.6213"
        },
        "par_4_261": {
          "nombre": "CHAMARTIN",
          "descripcion": "Calle de Agustín de Foxá 40",
          "tipo": "estacion_principal",
          "accesos": [],
          "ascensores": [],
          "accesible": true,
          "parent_station": "est_90_25",
          "lat": "40.47203",
          "lon": "-3.68259"
        },
        "par_4_262": {
          "nombre": "BAMBU",
          "descripcion": "Calle del Bambú 14",
          "tipo": "estacion_principal",
          "accesos": [],
          "ascensores": [],
          "accesible": true,
          "parent_station": "",
          "lat": "40.47682",
          "lon": "-3.67637"
        },
        "par_4_263": {
          "nombre": "PINAR DE CHAMARTIN",
          "descripcion": "Calle de Arturo Soria 330",
          "tipo": "estacion_principal",
          "accesos": [],
          "ascensores": [],
          "accesible": true,
          "parent_station": "",
          "lat": "40.48014",
          "lon": "-3.6668"
        },
        "par_4_27": {
          "nombre": "CONGOSTO",
          "descripcion": "Calle del Congosto 48",
          "tipo": "estacion_principal",
          "accesos": [],
          "ascensores": [],
          "accesible": true,
          "parent_station": "",
          "lat": "40.37238",
          "lon": "-3.61884"
        },
        "par_4_293": {
          "nombre": "LA GAVIA",
          "descripcion": "Avda del Ensanche de Vallecas 16",
          "tipo": "estacion_principal",
          "accesos": [],
          "ascensores": [],
          "accesible": true,
          "parent_station": "",
          "lat": "40.37019",
          "lon": "-3.61346"
        },
        "par_4_294": {
          "nombre": "LAS SUERTES",
          "descripcion": "Calle de Cañada del Santísimo 45",
          "tipo": "estacion_principal",
          "accesos": [],
          "ascensores": [],
          "accesible": true,
          "parent_station": "",
          "lat": "40.36323",
          "lon": "-3.59953"
        },
        "par_4_295": {
          "nombre": "VALDECARROS",
          "descripcion": "Avda del Ensanche de Vallecas 120 A",
          "tipo": "estacion_principal",
          "accesos": [],
          "ascensores": [],
          "accesible": true,
          "parent_station": "",
          "lat": "40.36007",
          "lon": "-3.59316"
        },
        "par_4_3": {
          "nombre": "TETUAN",
          "descripcion": "Calle de Bravo Murillo 264",
          "tipo": "estacion_principal",
          "accesos": [],
          "ascensores": [],
          "accesible": false,
          "parent_station": "",
          "lat": "40.46055",
          "lon": "-3.69825"
        },
        "par_4_4": {
          "nombre": "ESTRECHO",
          "descripcion": "Calle de Bravo Murillo 191",
          "tipo": "estacion_principal",
          "accesos": [],
          "ascensores": [],
          "accesible": false,
          "parent_station": "",
          "lat": "40.45429",
          "lon": "-3.70302"
        },
        "par_4_5": {
          "nombre": "ALVARADO",
          "descripcion": "Calle de Bravo Murillo 138",
          "tipo": "estacion_principal",
          "accesos": [],
          "ascensores": [],
          "accesible": false,
          "parent_station": "",
          "lat": "40.45033",
          "lon": "-3.70331"
        },
        "par_4_6": {
          "nombre": "CUATRO CAMINOS",
          "descripcion": "Gta de Cuatro Caminos 2",
          "tipo": "estacion_principal",
          "accesos": [],
          "ascensores": [],
          "accesible": true,
          "parent_station": "",
          "lat": "40.44697",
          "lon": "-3.70397"
        },
        "par_4_7": {
          "nombre": "RIOS ROSAS",
          "descripcion": "Calle de Ríos Rosas 22",
          "tipo": "estacion_principal",
          "accesos": [],
          "ascensores": [],
          "accesible": false,
          "parent_station": "",
          "lat": "40.44198",
          "lon": "-3.70133"
        },
        "par_4_8": {
          "nombre": "IGLESIA",
          "descripcion": "Gta del Pintor Sorolla 2",
          "tipo": "estacion_principal",
          "accesos": [],
          "ascensores": [],
          "accesible": true,
          "parent_station": "",
          "lat": "40.43492",
          "lon": "-3.69898"
        },
        "par_4_9": {
          "nombre": "BILBAO",
          "descripcion": "Calle de Sagasta 2",
          "tipo": "estacion_principal",
          "accesos": [],
          "ascensores": [],
          "accesible": false,
          "parent_station": "",
          "lat": "40.42906",
          "lon": "-3.70218"
        },
        "est_4_10": {
          "nombre": "TRIBUNAL",
          "descripcion": "Calle de Fuencarral 81",
          "tipo": "intercambiador",
          "accesos": [
            {
              "nombre": "Fuencarral",
              "descripcion": "Calle de Fuencarral 78",
              "tipo": "acceso",
              "accesible": false,
              "lat": "40.4262",
              "lon": "-3.70103"
            },
            {
              "nombre": "Tribunal de Cuentas",
              "descripcion": "Calle de Fuencarral 81",
              "tipo": "acceso",
              "accesible": false,
              "lat": "40.42569",
              "lon": "-3.70111"
            }
          ],
          "ascensores": [
            {
              "nombre": "Barceló - Ascensor",
              "descripcion": "Calle de Barceló 2",
              "tipo": "ascensor",
              "accesible": false,
              "lat": "40.4263",
              "lon": "-3.70067"
            }
          ],
          "accesible": false,
          "parent_station": "",
          "lat": "40.42619",
          "lon": "-3.7011"
        },
        "est_4_11": {
          "nombre": "GRAN VIA",
          "descripcion": "Calle   Gran Vía 23",
          "tipo": "intercambiador",
          "accesos": [
            {
              "nombre": "Gran Vía",
              "descripcion": "Calle  Gran Vía 25",
              "tipo": "acceso",
              "accesible": false,
              "lat": "40.41992",
              "lon": "-3.70183"
            },
            {
              "nombre": "Fuencarral",
              "descripcion": "Calle  Gran vía 28",
              "tipo": "acceso",
              "accesible": false,
              "lat": "40.42013",
              "lon": "-3.70181"
            }
          ],
          "ascensores": [
            {
              "nombre": "Montera - Ascensor",
              "descripcion": "Calle de la Montera 47",
              "tipo": "ascensor",
              "accesible": false,
              "lat": "40.41986",
              "lon": "-3.70158"
            }
          ],
          "accesible": false,
          "parent_station": "",
          "lat": "40.42001",
          "lon": "-3.7018"
        },
        "est_4_13": {
          "nombre": "TIRSO DE MOLINA",
          "descripcion": "Plaza de Tirso de Molina 7",
          "tipo": "intercambiador",
          "accesos": [],
          "ascensores": [],
          "accesible": false,
          "parent_station": "",
          "lat": "40.41235",
          "lon": "-3.70466"
        },
        "est_4_14": {
          "nombre": "ANTON MARTIN",
          "descripcion": "Calle de Atocha 50",
          "tipo": "intercambiador",
          "accesos": [
            {
              "nombre": "Amor de Dios",
              "descripcion": "Calle del Amor de Dios 14",
              "tipo": "acceso",
              "accesible": false,
              "lat": "40.4123",
              "lon": "-3.69865"
            },
            {
              "nombre": "Atocha impares",
              "descripcion": "Calle de Atocha 85",
              "tipo": "acceso",
              "accesible": false,
              "lat": "40.41152",
              "lon": "-3.69733"
            },
            {
              "nombre": "Atocha pares",
              "descripcion": "Calle de Atocha 76",
              "tipo": "acceso",
              "accesible": false,
              "lat": "40.41142",
              "lon": "-3.69742"
            }
          ],
          "ascensores": [],
          "accesible": false,
          "parent_station": "",
          "lat": "40.41246",
          "lon": "-3.69937"
        },
        "est_4_15": {
          "nombre": "ESTACION DEL ARTE",
          "descripcion": "Plaza del Emperador Carlos V 11",
          "tipo": "intercambiador",
          "accesos": [
            {
              "nombre": "Ministerio",
              "descripcion": "Paseo de la Infanta Isabel 1",
              "tipo": "acceso",
              "accesible": false,
              "lat": "40.40841",
              "lon": "-3.69052"
            }
          ],
          "ascensores": [],
          "accesible": false,
          "parent_station": "",
          "lat": "40.40885",
          "lon": "-3.69249"
        },
        "est_4_17": {
          "nombre": "MENENDEZ PELAYO",
          "descripcion": "Avda de la Ciudad de Barcelona 23",
          "tipo": "intercambiador",
          "accesos": [
            {
              "nombre": "Menéndez Pelayo impares",
              "descripcion": "Avda de Menéndez Pelayo 123",
              "tipo": "acceso",
              "accesible": false,
              "lat": "40.40443",
              "lon": "-3.68067"
            },
            {
              "nombre": "Menéndez Pelayo pares",
              "descripcion": "Avda de Menéndez Pelayo 44",
              "tipo": "acceso",
              "accesible": false,
              "lat": "40.40452",
              "lon": "-3.68091"
            },
            {
              "nombre": "Gutenberg",
              "descripcion": "Calle de Gutenberg 1",
              "tipo": "acceso",
              "accesible": false,
              "lat": "40.40489",
              "lon": "-3.68171"
            }
          ],
          "ascensores": [],
          "accesible": false,
          "parent_station": "",
          "lat": "40.40445",
          "lon": "-3.68098"
        },
        "est_4_18": {
          "nombre": "PACIFICO",
          "descripcion": "Avda de la Ciudad de Barcelona 79",
          "tipo": "intercambiador",
          "accesos": [
            {
              "nombre": "Doctor Esquerdo pares",
              "descripcion": "Calle del Doctor Esquerdo 184",
              "tipo": "acceso",
              "accesible": false,
              "lat": "40.40155",
              "lon": "-3.67479"
            },
            {
              "nombre": "Doctor Esquerdo impares",
              "descripcion": "Calle del Doctor Esquerdo 221",
              "tipo": "acceso",
              "accesible": false,
              "lat": "40.40147",
              "lon": "-3.67438"
            },
            {
              "nombre": "Sánchez Barcaíztegui",
              "descripcion": "Calle de Sánchez Barcaiztegui 1",
              "tipo": "acceso",
              "accesible": false,
              "lat": "40.4023",
              "lon": "-3.67615"
            }
          ],
          "ascensores": [
            {
              "nombre": "Ascensor",
              "descripcion": "Calle del Doctor Esquerdo 219",
              "tipo": "ascensor",
              "accesible": false,
              "lat": "40.40157",
              "lon": "-3.67428"
            }
          ],
          "accesible": false,
          "parent_station": "",
          "lat": "40.40126",
          "lon": "-3.67514"
        },
        "est_4_19": {
          "nombre": "PUENTE DE VALLECAS",
          "descripcion": "Avda de la Albufera 1",
          "tipo": "intercambiador",
          "accesos": [
            {
              "nombre": "Albufera pares",
              "descripcion": "Avda de la Albufera 12",
              "tipo": "acceso",
              "accesible": false,
              "lat": "40.39766",
              "lon": "-3.66815"
            },
            {
              "nombre": "Albufera impares",
              "descripcion": "Avda de la Albufera 9",
              "tipo": "acceso",
              "accesible": false,
              "lat": "40.3978",
              "lon": "-3.66808"
            },
            {
              "nombre": "Peña Prieta",
              "descripcion": "Avda de Peña Prieta 2",
              "tipo": "acceso",
              "accesible": false,
              "lat": "40.39851",
              "lon": "-3.66897"
            }
          ],
          "ascensores": [],
          "accesible": false,
          "parent_station": "",
          "lat": "40.39819",
          "lon": "-3.66906"
        },
        "est_4_2": {
          "nombre": "VALDEACEDERAS",
          "descripcion": "Calle de Bravo Murillo 332",
          "tipo": "intercambiador",
          "accesos": [
            {
              "nombre": "Capitán Blanco Argibay",
              "descripcion": "Calle de Bravo Murillo 324",
              "tipo": "acceso",
              "accesible": false,
              "lat": "40.46409",
              "lon": "-3.69577"
            }
          ],
          "ascensores": [],
          "accesible": false,
          "parent_station": "",
          "lat": "40.46442",
          "lon": "-3.69506"
        },
        "est_4_20": {
          "nombre": "NUEVA NUMANCIA",
          "descripcion": "Avda de la Albufera 70",
          "tipo": "intercambiador",
          "accesos": [
            {
              "nombre": "Avenida de la Albufera pares (N)",
              "descripcion": "Avda de la Albufera 54",
              "tipo": "acceso",
              "accesible": false,
              "lat": "40.39615",
              "lon": "-3.66527"
            },
            {
              "nombre": "Avenida de la Albufera impares (N)",
              "descripcion": "Avda de la Albufera 47",
              "tipo": "acceso",
              "accesible": false,
              "lat": "40.39626",
              "lon": "-3.66517"
            },
            {
              "nombre": "Avenida de la Albufera impares (S)",
              "descripcion": "Avda de la Albufera 69",
              "tipo": "acceso",
              "accesible": false,
              "lat": "40.39536",
              "lon": "-3.66341"
            },
            {
              "nombre": "Avenida de la Albufera pares (S)",
              "descripcion": "Avda de la Albufera 76",
              "tipo": "acceso",
              "accesible": false,
              "lat": "40.39523",
              "lon": "-3.66352"
            }
          ],
          "ascensores": [],
          "accesible": false,
          "parent_station": "",
          "lat": "40.39554",
          "lon": "-3.66414"
        },
        "est_4_21": {
          "nombre": "PORTAZGO",
          "descripcion": "Avda de la Albufera 131",
          "tipo": "intercambiador",
          "accesos": [
            {
              "nombre": "Albufera pares",
              "descripcion": "Avda de la Albufera 108",
              "tipo": "acceso",
              "accesible": false,
              "lat": "40.3933",
              "lon": "-3.65985"
            },
            {
              "nombre": "Teniente Muñoz Díaz",
              "descripcion": "Avda de la Albufera 130",
              "tipo": "acceso",
              "accesible": false,
              "lat": "40.39224",
              "lon": "-3.65785"
            }
          ],
          "ascensores": [
            {
              "nombre": "Ascensor 1",
              "descripcion": "Avda de la Albufera 125",
              "tipo": "ascensor",
              "accesible": false,
              "lat": "40.39297",
              "lon": "-3.65884"
            },
            {
              "nombre": "Ascensor 2",
              "descripcion": "Avda de la Albufera 112",
              "tipo": "ascensor",
              "accesible": false,
              "lat": "40.3927",
              "lon": "-3.65886"
            }
          ],
          "accesible": false,
          "parent_station": "",
          "lat": "40.39266",
          "lon": "-3.65868"
        },
        "est_4_22": {
          "nombre": "BUENOS AIRES",
          "descripcion": "Avda de la Albufera 179",
          "tipo": "intercambiador",
          "accesos": [
            {
              "nombre": "Pío Felipe",
              "descripcion": "Avda de la Albufera 179",
              "tipo": "acceso",
              "accesible": false,
              "lat": "40.39172",
              "lon": "-3.65401"
            }
          ],
          "ascensores": [],
          "accesible": false,
          "parent_station": "",
          "lat": "40.39156",
          "lon": "-3.65391"
        },
        "est_4_23": {
          "nombre": "ALTO DEL ARENAL",
          "descripcion": "Calle de Santillana del Mar 21",
          "tipo": "intercambiador",
          "accesos": [
            {
              "nombre": "Albufera impares",
              "descripcion": "Calle de Santillana del Mar 19",
              "tipo": "acceso",
              "accesible": false,
              "lat": "40.39015",
              "lon": "-3.64527"
            },
            {
              "nombre": "Albufera pares",
              "descripcion": "Avda de la Albufera 248",
              "tipo": "acceso",
              "accesible": false,
              "lat": "40.38969",
              "lon": "-3.64562"
            }
          ],
          "ascensores": [],
          "accesible": true,
          "parent_station": "",
          "lat": "40.38977",
          "lon": "-3.64522"
        },
        "est_4_24": {
          "nombre": "MIGUEL HERNANDEZ",
          "descripcion": "Calle de León Felipe 4 A",
          "tipo": "intercambiador",
          "accesos": [
            {
              "nombre": "Albufera pares",
              "descripcion": "Avda de la Albufera 280",
              "tipo": "acceso",
              "accesible": false,
              "lat": "40.38686",
              "lon": "-3.63959"
            },
            {
              "nombre": "Aparcamiento",
              "descripcion": "Avda de la Albufera 278",
              "tipo": "acceso",
              "accesible": false,
              "lat": "40.38706",
              "lon": "-3.6398"
            }
          ],
          "ascensores": [
            {
              "nombre": "Ascensor",
              "descripcion": "Avda de la Albufera 285",
              "tipo": "ascensor",
              "accesible": false,
              "lat": "40.38737",
              "lon": "-3.63971"
            }
          ],
          "accesible": true,
          "parent_station": "",
          "lat": "40.38732",
          "lon": "-3.63951"
        },
        "est_4_25": {
          "nombre": "SIERRA DE GUADALUPE",
          "descripcion": "Avda de la Democracia 1",
          "tipo": "intercambiador",
          "accesos": [
            {
              "nombre": "Acceso Glorieta RENFE",
              "descripcion": "Calle de Jesús del Pino 32",
              "tipo": "acceso",
              "accesible": false,
              "lat": "40.38196",
              "lon": "-3.62453"
            },
            {
              "nombre": "Avenida de la Democracia",
              "descripcion": "Avda de la Democracia 1",
              "tipo": "acceso",
              "accesible": false,
              "lat": "40.38224",
              "lon": "-3.62498"
            },
            {
              "nombre": "Correspondencia RENFE",
              "descripcion": "Calle de Sierra de Guadalupe 23",
              "tipo": "acceso",
              "accesible": false,
              "lat": "40.38208",
              "lon": "-3.62467"
            },
            {
              "nombre": "Avda. de la Democracia - Arboleda",
              "descripcion": "Avda de la Democracia 4",
              "tipo": "acceso",
              "accesible": false,
              "lat": "40.3831",
              "lon": "-3.62508"
            }
          ],
          "ascensores": [
            {
              "nombre": "Ascensor exterior RENFE",
              "descripcion": "Avda de la Democracia 1",
              "tipo": "ascensor",
              "accesible": false,
              "lat": "40.38208",
              "lon": "-3.62473"
            }
          ],
          "accesible": true,
          "parent_station": "",
          "lat": "40.38216",
          "lon": "-3.62472"
        },
        "est_4_26": {
          "nombre": "VILLA DE VALLECAS",
          "descripcion": "Paseo de Federico García Lorca 2",
          "tipo": "intercambiador",
          "accesos": [
            {
              "nombre": "Pº Federico García Lorca",
              "descripcion": "Paseo de Federico García Lorca 3",
              "tipo": "acceso",
              "accesible": false,
              "lat": "40.37933",
              "lon": "-3.62105"
            },
            {
              "nombre": "Sierra Vieja",
              "descripcion": "Plaza  Sierra de gador 10",
              "tipo": "acceso",
              "accesible": false,
              "lat": "40.37978",
              "lon": "-3.62187"
            }
          ],
          "ascensores": [
            {
              "nombre": "Ascensor",
              "descripcion": "Paseo de Federico García Lorca 1 B",
              "tipo": "ascensor",
              "accesible": false,
              "lat": "40.37949",
              "lon": "-3.62103"
            }
          ],
          "accesible": true,
          "parent_station": "",
          "lat": "40.3796",
          "lon": "-3.6213"
        },
        "est_4_262": {
          "nombre": "BAMBU",
          "descripcion": "Calle del Bambú 14",
          "tipo": "intercambiador",
          "accesos": [
            {
              "nombre": "Bambú",
              "descripcion": "Calle del Bambú 14",
              "tipo": "acceso",
              "accesible": false,
              "lat": "40.47683",
              "lon": "-3.67642"
            }
          ],
          "ascensores": [
            {
              "nombre": "Ascensor",
              "descripcion": "Calle del Bambú 14",
              "tipo": "ascensor",
              "accesible": false,
              "lat": "40.47705",
              "lon": "-3.67684"
            }
          ],
          "accesible": true,
          "parent_station": "",
          "lat": "40.47682",
          "lon": "-3.67637"
        },
        "est_4_263": {
          "nombre": "PINAR DE CHAMARTIN",
          "descripcion": "Calle de Arturo Soria 330",
          "tipo": "intercambiador",
          "accesos": [],
          "ascensores": [],
          "accesible": true,
          "parent_station": "",
          "lat": "40.48014",
          "lon": "-3.6668"
        },
        "est_4_27": {
          "nombre": "CONGOSTO",
          "descripcion": "Calle del Congosto 48",
          "tipo": "intercambiador",
          "accesos": [
            {
              "nombre": "Congosto",
              "descripcion": "Calle del Congosto 35",
              "tipo": "acceso",
              "accesible": false,
              "lat": "40.372",
              "lon": "-3.61866"
            },
            {
              "nombre": "Plaza de Congosto",
              "descripcion": "Calle del Congosto 33",
              "tipo": "acceso",
              "accesible": false,
              "lat": "40.37233",
              "lon": "-3.61867"
            }
          ],
          "ascensores": [
            {
              "nombre": "Ascensor",
              "descripcion": "Calle del Congosto 50",
              "tipo": "ascensor",
              "accesible": false,
              "lat": "40.37213",
              "lon": "-3.61891"
            }
          ],
          "accesible": true,
          "parent_station": "",
          "lat": "40.37238",
          "lon": "-3.61884"
        },
        "est_4_293": {
          "nombre": "LA GAVIA",
          "descripcion": "Avda del Ensanche de Vallecas 16",
          "tipo": "intercambiador",
          "accesos": [
            {
              "nombre": "Avda. Ensanche de Vallecas",
              "descripcion": "Avda del Ensanche de Vallecas 16",
              "tipo": "acceso",
              "accesible": false,
              "lat": "40.37029",
              "lon": "-3.61346"
            }
          ],
          "ascensores": [
            {
              "nombre": "Ascensor",
              "descripcion": "Avda del Ensanche de Vallecas 16",
              "tipo": "ascensor",
              "accesible": false,
              "lat": "40.37025",
              "lon": "-3.61337"
            }
          ],
          "accesible": true,
          "parent_station": "",
          "lat": "40.37019",
          "lon": "-3.61346"
        },
        "est_4_294": {
          "nombre": "LAS SUERTES",
          "descripcion": "Calle de Cañada del Santísimo 45",
          "tipo": "intercambiador",
          "accesos": [
            {
              "nombre": "Cañada del Santísimo",
              "descripcion": "Calle de Cañada del Santísimo 45",
              "tipo": "acceso",
              "accesible": false,
              "lat": "40.36317",
              "lon": "-3.59958"
            }
          ],
          "ascensores": [],
          "accesible": true,
          "parent_station": "",
          "lat": "40.36323",
          "lon": "-3.59953"
        },
        "est_4_295": {
          "nombre": "VALDECARROS",
          "descripcion": "Avda del Ensanche de Vallecas 120 A",
          "tipo": "intercambiador",
          "accesos": [],
          "ascensores": [
            {
              "nombre": "Ascensor",
              "descripcion": "Avda del Ensanche de Vallecas 120 A",
              "tipo": "ascensor",
              "accesible": false,
              "lat": "40.36009",
              "lon": "-3.59312"
            }
          ],
          "accesible": true,
          "parent_station": "",
          "lat": "40.36007",
          "lon": "-3.59316"
        },
        "est_4_3": {
          "nombre": "TETUAN",
          "descripcion": "Calle de Bravo Murillo 264",
          "tipo": "intercambiador",
          "accesos": [
            {
              "nombre": "Algodonales",
              "descripcion": "Calle de Bravo Murillo 269",
              "tipo": "acceso",
              "accesible": false,
              "lat": "40.45982",
              "lon": "-3.69929"
            },
            {
              "nombre": "General Margallo",
              "descripcion": "Calle del General Margallo 2",
              "tipo": "acceso",
              "accesible": false,
              "lat": "40.46115",
              "lon": "-3.69788"
            }
          ],
          "ascensores": [],
          "accesible": false,
          "parent_station": "",
          "lat": "40.46055",
          "lon": "-3.69825"
        },
        "est_4_4": {
          "nombre": "ESTRECHO",
          "descripcion": "Calle de Bravo Murillo 191",
          "tipo": "intercambiador",
          "accesos": [
            {
              "nombre": "Juan de Olías",
              "descripcion": "Calle de Bravo Murillo 170",
              "tipo": "acceso",
              "accesible": false,
              "lat": "40.45367",
              "lon": "-3.70283"
            },
            {
              "nombre": "Navarra",
              "descripcion": "Calle de Bravo Murillo 183",
              "tipo": "acceso",
              "accesible": false,
              "lat": "40.45363",
              "lon": "-3.70309"
            }
          ],
          "ascensores": [],
          "accesible": false,
          "parent_station": "",
          "lat": "40.45429",
          "lon": "-3.70302"
        },
        "est_4_5": {
          "nombre": "ALVARADO",
          "descripcion": "Calle de Bravo Murillo 138",
          "tipo": "intercambiador",
          "accesos": [
            {
              "nombre": "Bravo Murillo impares",
              "descripcion": "Calle de Bravo Murillo 135",
              "tipo": "acceso",
              "accesible": false,
              "lat": "40.45026",
              "lon": "-3.70361"
            },
            {
              "nombre": "Bravo Murillo pares",
              "descripcion": "Calle de Bravo Murillo 136",
              "tipo": "acceso",
              "accesible": false,
              "lat": "40.45017",
              "lon": "-3.70337"
            }
          ],
          "ascensores": [],
          "accesible": false,
          "parent_station": "",
          "lat": "40.45033",
          "lon": "-3.70331"
        },
        "est_4_6": {
          "nombre": "CUATRO CAMINOS",
          "descripcion": "Gta de Cuatro Caminos 2",
          "tipo": "intercambiador",
          "accesos": [
            {
              "nombre": "Reina Victoria impares",
              "descripcion": "Gta de Cuatro Caminos 1",
              "tipo": "acceso",
              "accesible": false,
              "lat": "40.44671",
              "lon": "-3.70428"
            },
            {
              "nombre": "Santa Engracia",
              "descripcion": "Calle de Santa Engracia 168",
              "tipo": "acceso",
              "accesible": false,
              "lat": "40.44652",
              "lon": "-3.70362"
            },
            {
              "nombre": "Maudes",
              "descripcion": "Calle de Maudes 8",
              "tipo": "acceso",
              "accesible": false,
              "lat": "40.44534",
              "lon": "-3.70258"
            }
          ],
          "ascensores": [
            {
              "nombre": "Ascensor exterior",
              "descripcion": "Calle de Santa Engracia 179",
              "tipo": "ascensor",
              "accesible": false,
              "lat": "40.44624",
              "lon": "-3.70375"
            }
          ],
          "accesible": true,
          "parent_station": "",
          "lat": "40.44697",
          "lon": "-3.70397"
        },
        "est_4_7": {
          "nombre": "RIOS ROSAS",
          "descripcion": "Calle de Ríos Rosas 22",
          "tipo": "intercambiador",
          "accesos": [
            {
              "nombre": "Ríos Rosas pares",
              "descripcion": "Calle de Ríos Rosas 24",
              "tipo": "acceso",
              "accesible": false,
              "lat": "40.44189",
              "lon": "-3.70113"
            },
            {
              "nombre": "Sta. Engracia - Pza. Descubridor Diego de Ordás",
              "descripcion": "Calle de Santa Engracia 120 A",
              "tipo": "acceso",
              "accesible": false,
              "lat": "40.44052",
              "lon": "-3.70127"
            }
          ],
          "ascensores": [],
          "accesible": false,
          "parent_station": "",
          "lat": "40.44198",
          "lon": "-3.70133"
        },
        "est_4_8": {
          "nombre": "IGLESIA",
          "descripcion": "Gta del Pintor Sorolla 2",
          "tipo": "intercambiador",
          "accesos": [
            {
              "nombre": "Santa Engracia",
              "descripcion": "Calle de Santa Engracia 58",
              "tipo": "acceso",
              "accesible": false,
              "lat": "40.43475",
              "lon": "-3.69853"
            },
            {
              "nombre": "Sagunto",
              "descripcion": "Calle de Santa Engracia 61",
              "tipo": "acceso",
              "accesible": false,
              "lat": "40.43389",
              "lon": "-3.6984"
            },
            {
              "nombre": "Eloy Gonzalo impares",
              "descripcion": "Calle de Eloy Gonzalo 35",
              "tipo": "acceso",
              "accesible": false,
              "lat": "40.4349",
              "lon": "-3.69932"
            }
          ],
          "ascensores": [],
          "accesible": true,
          "parent_station": "",
          "lat": "40.43492",
          "lon": "-3.69898"
        },
        "est_4_9": {
          "nombre": "BILBAO",
          "descripcion": "Calle de Sagasta 2",
          "tipo": "intercambiador",
          "accesos": [
            {
              "nombre": "Fuencarral",
              "descripcion": "Gta de Bilbao 5",
              "tipo": "acceso",
              "accesible": false,
              "lat": "40.42926",
              "lon": "-3.70193"
            },
            {
              "nombre": "Manuela Malasaña",
              "descripcion": "Gta de Bilbao 7",
              "tipo": "acceso",
              "accesible": false,
              "lat": "40.42876",
              "lon": "-3.70206"
            },
            {
              "nombre": "Francisco de Rojas",
              "descripcion": "Calle de Luchana 22",
              "tipo": "acceso",
              "accesible": false,
              "lat": "40.43029",
              "lon": "-3.70023"
            },
            {
              "nombre": "Trafalgar",
              "descripcion": "Calle de Luchana 21",
              "tipo": "acceso",
              "accesible": false,
              "lat": "40.43047",
              "lon": "-3.70032"
            }
          ],
          "ascensores": [
            {
              "nombre": "Luchana - Ascensor",
              "descripcion": "Gta de Bilbao 6",
              "tipo": "ascensor",
              "accesible": false,
              "lat": "40.42904",
              "lon": "-3.70166"
            }
          ],
          "accesible": false,
          "parent_station": "",
          "lat": "40.42906",
          "lon": "-3.70218"
        },
        "par_4_260": {
          "nombre": "LA ELIPA",
          "descripcion": "Avda del Marqués de Corbera 58",
          "tipo": "estacion_principal",
          "accesos": [],
          "ascensores": [],
          "accesible": true,
          "parent_station": "",
          "lat": "40.42662",
          "lon": "-3.65052"
        },
        "par_4_28": {
          "nombre": "VENTAS",
          "descripcion": "Calle de Alcalá 204",
          "tipo": "estacion_principal",
          "accesos": [],
          "ascensores": [],
          "accesible": false,
          "parent_station": "",
          "lat": "40.43088",
          "lon": "-3.66366"
        },
        "par_4_29": {
          "nombre": "MANUEL BECERRA",
          "descripcion": "Plaza de Manuel Becerra 1",
          "tipo": "estacion_principal",
          "accesos": [],
          "ascensores": [],
          "accesible": false,
          "parent_station": "",
          "lat": "40.4279",
          "lon": "-3.66926"
        },
        "par_4_30": {
          "nombre": "GOYA",
          "descripcion": "Calle de Alcalá 96",
          "tipo": "estacion_principal",
          "accesos": [],
          "ascensores": [],
          "accesible": true,
          "parent_station": "",
          "lat": "40.42455",
          "lon": "-3.67591"
        },
        "par_4_31": {
          "nombre": "PRINCIPE DE VERGARA",
          "descripcion": "Calle de Alcalá 123",
          "tipo": "estacion_principal",
          "accesos": [],
          "ascensores": [],
          "accesible": false,
          "parent_station": "",
          "lat": "40.42294",
          "lon": "-3.68012"
        },
        "par_4_32": {
          "nombre": "RETIRO",
          "descripcion": "Calle de Alcalá 81",
          "tipo": "estacion_principal",
          "accesos": [],
          "ascensores": [],
          "accesible": false,
          "parent_station": "",
          "lat": "40.42031",
          "lon": "-3.68624"
        },
        "par_4_322": {
          "nombre": "LA ALMUDENA",
          "descripcion": "Calle de Arriaga 75",
          "tipo": "estacion_principal",
          "accesos": [],
          "ascensores": [],
          "accesible": false,
          "parent_station": "",
          "lat": "40.42361",
          "lon": "-3.63914"
        },
        "par_4_323": {
          "nombre": "ALSACIA",
          "descripcion": "Plaza de Alsacia S/N",
          "tipo": "estacion_principal",
          "accesos": [],
          "ascensores": [],
          "accesible": false,
          "parent_station": "",
          "lat": "40.41829",
          "lon": "-3.62351"
        },
        "par_4_324": {
          "nombre": "AVENIDA DE GUADALAJARA",
          "descripcion": "Avda de Guadalajara 110",
          "tipo": "estacion_principal",
          "accesos": [],
          "ascensores": [],
          "accesible": false,
          "parent_station": "",
          "lat": "40.42239",
          "lon": "-3.61206"
        },
        "par_4_325": {
          "nombre": "LAS ROSAS",
          "descripcion": "Paseo de Ginebra 35",
          "tipo": "estacion_principal",
          "accesos": [],
          "ascensores": [],
          "accesible": false,
          "parent_station": "",
          "lat": "40.42375",
          "lon": "-3.60331"
        },
        "par_4_33": {
          "nombre": "BANCO DE ESPAÑA",
          "descripcion": "Calle de Alcalá 49",
          "tipo": "estacion_principal",
          "accesos": [],
          "ascensores": [],
          "accesible": false,
          "parent_station": "",
          "lat": "40.41922",
          "lon": "-3.69497"
        },
        "par_4_34": {
          "nombre": "SEVILLA",
          "descripcion": "Calle de Alcalá 23",
          "tipo": "estacion_principal",
          "accesos": [],
          "ascensores": [],
          "accesible": false,
          "parent_station": "",
          "lat": "40.41805",
          "lon": "-3.69925"
        },
        "par_4_35": {
          "nombre": "SOL",
          "descripcion": "Plaza de la Puerta del Sol 6",
          "tipo": "estacion_principal",
          "accesos": [],
          "ascensores": [],
          "accesible": true,
          "parent_station": "est_90_58",
          "lat": "40.41685",
          "lon": "-3.70326"
        },
        "par_4_36": {
          "nombre": "OPERA",
          "descripcion": "Plaza de Isabel II 9",
          "tipo": "estacion_principal",
          "accesos": [],
          "ascensores": [],
          "accesible": false,
          "parent_station": "",
          "lat": "40.41809",
          "lon": "-3.70942"
        },
        "par_4_37": {
          "nombre": "SANTO DOMINGO",
          "descripcion": "Calle de San Bernardo 11",
          "tipo": "estacion_principal",
          "accesos": [],
          "ascensores": [],
          "accesible": false,
          "parent_station": "",
          "lat": "40.42132",
          "lon": "-3.70796"
        },
        "par_4_38": {
          "nombre": "NOVICIADO",
          "descripcion": "Calle de San Bernardo 49",
          "tipo": "estacion_principal",
          "accesos": [],
          "ascensores": [],
          "accesible": false,
          "parent_station": "",
          "lat": "40.42484",
          "lon": "-3.70742"
        },
        "par_4_39": {
          "nombre": "SAN BERNARDO",
          "descripcion": "Calle de San Bernardo 94",
          "tipo": "estacion_principal",
          "accesos": [],
          "ascensores": [],
          "accesible": false,
          "parent_station": "",
          "lat": "40.43001",
          "lon": "-3.70557"
        },
        "par_4_40": {
          "nombre": "QUEVEDO",
          "descripcion": "Gta de Quevedo 1",
          "tipo": "estacion_principal",
          "accesos": [],
          "ascensores": [],
          "accesible": false,
          "parent_station": "",
          "lat": "40.43322",
          "lon": "-3.70433"
        },
        "par_4_41": {
          "nombre": "CANAL",
          "descripcion": "Calle de Bravo Murillo 40",
          "tipo": "estacion_principal",
          "accesos": [],
          "ascensores": [],
          "accesible": true,
          "parent_station": "",
          "lat": "40.43841",
          "lon": "-3.70433"
        },
        "par_4_42": {
          "nombre": "CUATRO CAMINOS",
          "descripcion": "Gta de Cuatro Caminos 10",
          "tipo": "estacion_principal",
          "accesos": [],
          "ascensores": [],
          "accesible": true,
          "parent_station": "est_4_6",
          "lat": "40.44697",
          "lon": "-3.70392"
        },
        "est_4_260": {
          "nombre": "LA ELIPA",
          "descripcion": "Avda del Marqués de Corbera 58",
          "tipo": "intercambiador",
          "accesos": [
            {
              "nombre": "Avda. Marqués de Corbera",
              "descripcion": "Avda del Marqués de Corbera 56",
              "tipo": "acceso",
              "accesible": false,
              "lat": "40.42647",
              "lon": "-3.65071"
            }
          ],
          "ascensores": [
            {
              "nombre": "Ascensor",
              "descripcion": "Avda del Marqués de Corbera 58",
              "tipo": "ascensor",
              "accesible": false,
              "lat": "40.42651",
              "lon": "-3.65042"
            }
          ],
          "accesible": true,
          "parent_station": "",
          "lat": "40.42662",
          "lon": "-3.65052"
        },
        "est_4_28": {
          "nombre": "VENTAS",
          "descripcion": "Calle de Alcalá 204",
          "tipo": "intercambiador",
          "accesos": [
            {
              "nombre": "Plaza de Toros",
              "descripcion": "Calle de Alcalá 237",
              "tipo": "acceso",
              "accesible": false,
              "lat": "40.43104",
              "lon": "-3.66329"
            },
            {
              "nombre": "Plaza de Toros",
              "descripcion": "Calle de Alcalá 237",
              "tipo": "acceso",
              "accesible": false,
              "lat": "40.4312",
              "lon": "-3.66338"
            }
          ],
          "ascensores": [],
          "accesible": false,
          "parent_station": "",
          "lat": "40.43088",
          "lon": "-3.66366"
        },
        "est_4_29": {
          "nombre": "MANUEL BECERRA",
          "descripcion": "Plaza de Manuel Becerra 1",
          "tipo": "intercambiador",
          "accesos": [
            {
              "nombre": "Doctor Esquerdo",
              "descripcion": "Plaza de Manuel Becerra 20",
              "tipo": "acceso",
              "accesible": false,
              "lat": "40.42762",
              "lon": "-3.66927"
            }
          ],
          "ascensores": [],
          "accesible": false,
          "parent_station": "",
          "lat": "40.4279",
          "lon": "-3.66926"
        },
        "est_4_30": {
          "nombre": "GOYA",
          "descripcion": "Calle de Alcalá 96",
          "tipo": "intercambiador",
          "accesos": [
            {
              "nombre": "General Díaz Porlier",
              "descripcion": "Calle de Goya 62",
              "tipo": "acceso",
              "accesible": false,
              "lat": "40.42478",
              "lon": "-3.67758"
            },
            {
              "nombre": "Conde de Peñalver pares",
              "descripcion": "Calle del Conde del Peñalver 2",
              "tipo": "acceso",
              "accesible": false,
              "lat": "40.42499",
              "lon": "-3.67556"
            },
            {
              "nombre": "Conde de Peñalver impares",
              "descripcion": "Calle de Goya 89",
              "tipo": "acceso",
              "accesible": false,
              "lat": "40.42508",
              "lon": "-3.67581"
            },
            {
              "nombre": "Felipe II pares",
              "descripcion": "Avda de Felipe II 12",
              "tipo": "acceso",
              "accesible": false,
              "lat": "40.4239",
              "lon": "-3.67614"
            }
          ],
          "ascensores": [
            {
              "nombre": "Ascensor ext nº4 a A2 L4",
              "descripcion": "Calle de Goya 87",
              "tipo": "ascensor",
              "accesible": false,
              "lat": "40.42494",
              "lon": "-3.67662"
            },
            {
              "nombre": "Ascensor ext nº5 a A2 L4",
              "descripcion": "Calle de Goya 87",
              "tipo": "ascensor",
              "accesible": false,
              "lat": "40.42495",
              "lon": "-3.67666"
            },
            {
              "nombre": "Ascensor ext nº3 a A1 L2",
              "descripcion": "Avda de Felipe II 1",
              "tipo": "ascensor",
              "accesible": false,
              "lat": "40.42422",
              "lon": "-3.67615"
            },
            {
              "nombre": "Ascensor exterior",
              "descripcion": "Calle del General Díaz Porlier 3",
              "tipo": "ascensor",
              "accesible": false,
              "lat": "40.42441",
              "lon": "-3.67734"
            }
          ],
          "accesible": true,
          "parent_station": "",
          "lat": "40.42455",
          "lon": "-3.67591"
        },
        "est_4_31": {
          "nombre": "PRINCIPE DE VERGARA",
          "descripcion": "Calle de Alcalá 123",
          "tipo": "intercambiador",
          "accesos": [
            {
              "nombre": "Alcalá",
              "descripcion": "Calle de Alcalá 125",
              "tipo": "acceso",
              "accesible": false,
              "lat": "40.42308",
              "lon": "-3.67976"
            }
          ],
          "ascensores": [
            {
              "nombre": "Príncipe de Vergara - Ascensor 2",
              "descripcion": "Calle del Príncipe de Vergara 5",
              "tipo": "ascensor",
              "accesible": false,
              "lat": "40.4233",
              "lon": "-3.68041"
            }
          ],
          "accesible": false,
          "parent_station": "",
          "lat": "40.42294",
          "lon": "-3.68012"
        },
        "est_4_32": {
          "nombre": "RETIRO",
          "descripcion": "Calle de Alcalá 81",
          "tipo": "intercambiador",
          "accesos": [
            {
              "nombre": "Lagasca",
              "descripcion": "Calle de Lagasca 4",
              "tipo": "acceso",
              "accesible": false,
              "lat": "40.42082",
              "lon": "-3.68582"
            },
            {
              "nombre": "Rampa",
              "descripcion": "Calle de Lagasca 4",
              "tipo": "acceso",
              "accesible": false,
              "lat": "40.42096",
              "lon": "-3.68581"
            },
            {
              "nombre": "Claudio Coello",
              "descripcion": "Calle de Alcalá 75",
              "tipo": "acceso",
              "accesible": false,
              "lat": "40.42044",
              "lon": "-3.6871"
            }
          ],
          "ascensores": [],
          "accesible": false,
          "parent_station": "",
          "lat": "40.42031",
          "lon": "-3.68624"
        },
        "est_4_322": {
          "nombre": "LA ALMUDENA",
          "descripcion": "Calle de Arriaga 75",
          "tipo": "intercambiador",
          "accesos": [
            {
              "nombre": "Arriaga",
              "descripcion": "Calle de Arriaga 75",
              "tipo": "acceso",
              "accesible": false,
              "lat": "40.42374",
              "lon": "-3.63925"
            }
          ],
          "ascensores": [
            {
              "nombre": "Ascensor Exterior",
              "descripcion": "Calle de Francisco Largo Caballero 15",
              "tipo": "ascensor",
              "accesible": false,
              "lat": "40.42358",
              "lon": "-3.63909"
            }
          ],
          "accesible": false,
          "parent_station": "",
          "lat": "40.42361",
          "lon": "-3.63914"
        },
        "est_4_323": {
          "nombre": "ALSACIA",
          "descripcion": "Plaza de Alsacia S/N",
          "tipo": "intercambiador",
          "accesos": [
            {
              "nombre": "Avenida de Guadalajara",
              "descripcion": "Avda de Guadalajara 2",
              "tipo": "acceso",
              "accesible": false,
              "lat": "40.41864",
              "lon": "-3.62319"
            }
          ],
          "ascensores": [
            {
              "nombre": "Ascensor Exterior Nº1",
              "descripcion": "Plaza de Alsacia S/N",
              "tipo": "ascensor",
              "accesible": false,
              "lat": "40.41806",
              "lon": "-3.62326"
            },
            {
              "nombre": "Ascensor Exterior Nº 2",
              "descripcion": "Avda de Guadalajara 2",
              "tipo": "ascensor",
              "accesible": false,
              "lat": "40.41861",
              "lon": "-3.6234"
            }
          ],
          "accesible": false,
          "parent_station": "",
          "lat": "40.41829",
          "lon": "-3.62351"
        },
        "est_4_324": {
          "nombre": "AVENIDA DE GUADALAJARA",
          "descripcion": "Avda de Guadalajara 110",
          "tipo": "intercambiador",
          "accesos": [
            {
              "nombre": "Dresde",
              "descripcion": "Avda de Guadalajara 110",
              "tipo": "acceso",
              "accesible": false,
              "lat": "40.42233",
              "lon": "-3.61196"
            }
          ],
          "ascensores": [
            {
              "nombre": "Ascensor Exterior",
              "descripcion": "Avda de Guadalajara 110",
              "tipo": "ascensor",
              "accesible": false,
              "lat": "40.42246",
              "lon": "-3.61162"
            }
          ],
          "accesible": false,
          "parent_station": "",
          "lat": "40.42239",
          "lon": "-3.61206"
        },
        "est_4_325": {
          "nombre": "LAS ROSAS",
          "descripcion": "Paseo de Ginebra 35",
          "tipo": "intercambiador",
          "accesos": [
            {
              "nombre": "Paseo de Ginebra",
              "descripcion": "Calle de Suecia 44",
              "tipo": "acceso",
              "accesible": false,
              "lat": "40.4239",
              "lon": "-3.60366"
            }
          ],
          "ascensores": [],
          "accesible": false,
          "parent_station": "",
          "lat": "40.42375",
          "lon": "-3.60331"
        },
        "est_4_33": {
          "nombre": "BANCO DE ESPAÑA",
          "descripcion": "Calle de Alcalá 49",
          "tipo": "intercambiador",
          "accesos": [
            {
              "nombre": "Palacio de Buenavista",
              "descripcion": "Calle de Alcalá 51",
              "tipo": "acceso",
              "accesible": false,
              "lat": "40.41937",
              "lon": "-3.69419"
            },
            {
              "nombre": "Banco de España",
              "descripcion": "Calle de Alcalá 48",
              "tipo": "acceso",
              "accesible": false,
              "lat": "40.41895",
              "lon": "-3.69451"
            },
            {
              "nombre": "Marqués de Cubas",
              "descripcion": "Calle de Alcalá 46",
              "tipo": "acceso",
              "accesible": false,
              "lat": "40.41874",
              "lon": "-3.69563"
            }
          ],
          "ascensores": [],
          "accesible": false,
          "parent_station": "",
          "lat": "40.41922",
          "lon": "-3.69497"
        },
        "est_4_34": {
          "nombre": "SEVILLA",
          "descripcion": "Calle de Alcalá 23",
          "tipo": "intercambiador",
          "accesos": [
            {
              "nombre": "Alcalá",
              "descripcion": "Calle de Alcalá 23",
              "tipo": "acceso",
              "accesible": false,
              "lat": "40.41807",
              "lon": "-3.69913"
            }
          ],
          "ascensores": [],
          "accesible": false,
          "parent_station": "",
          "lat": "40.41805",
          "lon": "-3.69925"
        },
        "est_4_36": {
          "nombre": "OPERA",
          "descripcion": "Plaza de Isabel II 9",
          "tipo": "intercambiador",
          "accesos": [
            {
              "nombre": "Campomanes",
              "descripcion": "Plaza de Isabel II 5",
              "tipo": "acceso",
              "accesible": false,
              "lat": "40.41823",
              "lon": "-3.70935"
            }
          ],
          "ascensores": [],
          "accesible": false,
          "parent_station": "",
          "lat": "40.41809",
          "lon": "-3.70942"
        },
        "est_4_37": {
          "nombre": "SANTO DOMINGO",
          "descripcion": "Calle de San Bernardo 11",
          "tipo": "intercambiador",
          "accesos": [
            {
              "nombre": "Santo Domingo",
              "descripcion": "Plaza de Santo Domingo 6",
              "tipo": "acceso",
              "accesible": false,
              "lat": "40.42044",
              "lon": "-3.7086"
            },
            {
              "nombre": "Gran Vía",
              "descripcion": "Calle  Gran Vía 51",
              "tipo": "acceso",
              "accesible": false,
              "lat": "40.4213",
              "lon": "-3.70778"
            }
          ],
          "ascensores": [],
          "accesible": false,
          "parent_station": "",
          "lat": "40.42132",
          "lon": "-3.70796"
        },
        "est_4_39": {
          "nombre": "SAN BERNARDO",
          "descripcion": "Calle de San Bernardo 94",
          "tipo": "intercambiador",
          "accesos": [
            {
              "nombre": "Alberto Aguilera",
              "descripcion": "Gta de Ruiz Jiménez 2",
              "tipo": "acceso",
              "accesible": false,
              "lat": "40.42988",
              "lon": "-3.70604"
            },
            {
              "nombre": "Carranza",
              "descripcion": "Gta de Ruiz Jiménez 5",
              "tipo": "acceso",
              "accesible": false,
              "lat": "40.42967",
              "lon": "-3.7053"
            }
          ],
          "ascensores": [],
          "accesible": false,
          "parent_station": "",
          "lat": "40.43001",
          "lon": "-3.70557"
        },
        "est_4_40": {
          "nombre": "QUEVEDO",
          "descripcion": "Gta de Quevedo 1",
          "tipo": "intercambiador",
          "accesos": [
            {
              "nombre": "Arapiles",
              "descripcion": "Gta de Quevedo 2",
              "tipo": "acceso",
              "accesible": false,
              "lat": "40.43339",
              "lon": "-3.70472"
            },
            {
              "nombre": "Fuencarral",
              "descripcion": "Gta de Quevedo 1",
              "tipo": "acceso",
              "accesible": false,
              "lat": "40.43311",
              "lon": "-3.70434"
            }
          ],
          "ascensores": [],
          "accesible": false,
          "parent_station": "",
          "lat": "40.43322",
          "lon": "-3.70433"
        },
        "est_4_41": {
          "nombre": "CANAL",
          "descripcion": "Calle de Bravo Murillo 40",
          "tipo": "intercambiador",
          "accesos": [
            {
              "nombre": "Bravo Murillo pares",
              "descripcion": "Calle de Bravo Murillo 40",
              "tipo": "acceso",
              "accesible": false,
              "lat": "40.43832",
              "lon": "-3.70412"
            },
            {
              "nombre": "Bravo Murillo impares",
              "descripcion": "Calle de Bravo Murillo 47",
              "tipo": "acceso",
              "accesible": false,
              "lat": "40.43825",
              "lon": "-3.70434"
            }
          ],
          "ascensores": [
            {
              "nombre": "Ascensor",
              "descripcion": "Calle de Bravo Murillo 47 A",
              "tipo": "ascensor",
              "accesible": false,
              "lat": "40.43846",
              "lon": "-3.70441"
            }
          ],
          "accesible": true,
          "parent_station": "",
          "lat": "40.43841",
          "lon": "-3.70433"
        },
        "par_4_267": {
          "nombre": "ALMENDRALES",
          "descripcion": "Avda de Córdoba 21",
          "tipo": "estacion_principal",
          "accesos": [],
          "ascensores": [],
          "accesible": true,
          "parent_station": "",
          "lat": "40.38409",
          "lon": "-3.69788"
        },
        "par_4_268": {
          "nombre": "HOSPITAL 12 DE OCTUBRE",
          "descripcion": "Avda de Córdoba 49",
          "tipo": "estacion_principal",
          "accesos": [],
          "ascensores": [],
          "accesible": true,
          "parent_station": "",
          "lat": "40.37503",
          "lon": "-3.69585"
        },
        "par_4_269": {
          "nombre": "SAN FERMIN-ORCASUR",
          "descripcion": "Avda de Andalucía 9",
          "tipo": "estacion_principal",
          "accesos": [],
          "ascensores": [],
          "accesible": true,
          "parent_station": "",
          "lat": "40.36999",
          "lon": "-3.69418"
        },
        "par_4_270": {
          "nombre": "CIUDAD DE LOS ANGELES",
          "descripcion": "Avda de Andalucía 38",
          "tipo": "estacion_principal",
          "accesos": [],
          "ascensores": [],
          "accesible": true,
          "parent_station": "",
          "lat": "40.35959",
          "lon": "-3.69363"
        },
        "par_4_271": {
          "nombre": "VILLAVERDE BAJO CRUCE",
          "descripcion": "Avda de Andalucía 38",
          "tipo": "estacion_principal",
          "accesos": [],
          "ascensores": [],
          "accesible": true,
          "parent_station": "",
          "lat": "40.35089",
          "lon": "-3.69265"
        },
        "par_4_272": {
          "nombre": "SAN CRISTOBAL",
          "descripcion": "Avda de Andalucía 81",
          "tipo": "estacion_principal",
          "accesos": [],
          "ascensores": [],
          "accesible": true,
          "parent_station": "",
          "lat": "40.34154",
          "lon": "-3.69318"
        },
        "par_4_273": {
          "nombre": "VILLAVERDE ALTO",
          "descripcion": "Calle del Valle de Tobalina 56",
          "tipo": "estacion_principal",
          "accesos": [],
          "ascensores": [],
          "accesible": true,
          "parent_station": "",
          "lat": "40.34123",
          "lon": "-3.71199"
        },
        "par_4_43": {
          "nombre": "LEGAZPI",
          "descripcion": "Plaza de Legazpi 2 B",
          "tipo": "estacion_principal",
          "accesos": [],
          "ascensores": [],
          "accesible": true,
          "parent_station": "",
          "lat": "40.39116",
          "lon": "-3.69511"
        },
        "par_4_44": {
          "nombre": "DELICIAS",
          "descripcion": "Paseo de las Delicias 60",
          "tipo": "estacion_principal",
          "accesos": [],
          "ascensores": [],
          "accesible": true,
          "parent_station": "",
          "lat": "40.3999",
          "lon": "-3.6942"
        },
        "par_4_45": {
          "nombre": "PALOS DE LA FRONTERA",
          "descripcion": "Calle de Palos de la Frontera 33",
          "tipo": "estacion_principal",
          "accesos": [],
          "ascensores": [],
          "accesible": true,
          "parent_station": "",
          "lat": "40.40307",
          "lon": "-3.69423"
        },
        "par_4_46": {
          "nombre": "EMBAJADORES",
          "descripcion": "Gta de Embajadores 10",
          "tipo": "estacion_principal",
          "accesos": [],
          "ascensores": [],
          "accesible": true,
          "parent_station": "",
          "lat": "40.40513",
          "lon": "-3.70268"
        },
        "par_4_47": {
          "nombre": "LAVAPIES",
          "descripcion": "Plaza de Lavapiés 7",
          "tipo": "estacion_principal",
          "accesos": [],
          "ascensores": [],
          "accesible": true,
          "parent_station": "",
          "lat": "40.40851",
          "lon": "-3.7009"
        },
        "par_4_48": {
          "nombre": "SOL",
          "descripcion": "Plaza de la Puerta del Sol 6",
          "tipo": "estacion_principal",
          "accesos": [],
          "ascensores": [],
          "accesible": true,
          "parent_station": "est_90_58",
          "lat": "40.41682",
          "lon": "-3.70326"
        },
        "par_4_49": {
          "nombre": "CALLAO",
          "descripcion": "Plaza del Callao 3",
          "tipo": "estacion_principal",
          "accesos": [],
          "ascensores": [],
          "accesible": true,
          "parent_station": "",
          "lat": "40.42014",
          "lon": "-3.70566"
        },
        "par_4_50": {
          "nombre": "PLAZA DE ESPAÑA",
          "descripcion": "Plaza de España 1",
          "tipo": "estacion_principal",
          "accesos": [],
          "ascensores": [],
          "accesible": true,
          "parent_station": "",
          "lat": "40.42342",
          "lon": "-3.7112"
        },
        "par_4_51": {
          "nombre": "VENTURA RODRIGUEZ",
          "descripcion": "Calle de la Princesa 22",
          "tipo": "estacion_principal",
          "accesos": [],
          "ascensores": [],
          "accesible": true,
          "parent_station": "",
          "lat": "40.42709",
          "lon": "-3.71341"
        },
        "par_4_52": {
          "nombre": "ARGÜELLES",
          "descripcion": "Calle de Alberto Aguilera 72",
          "tipo": "estacion_principal",
          "accesos": [],
          "ascensores": [],
          "accesible": false,
          "parent_station": "",
          "lat": "40.43066",
          "lon": "-3.71596"
        },
        "par_4_53": {
          "nombre": "MONCLOA",
          "descripcion": "Plaza de la Moncloa 1",
          "tipo": "estacion_principal",
          "accesos": [],
          "ascensores": [],
          "accesible": true,
          "parent_station": "est_90_14",
          "lat": "40.43502",
          "lon": "-3.71945"
        },
        "est_4_267": {
          "nombre": "ALMENDRALES",
          "descripcion": "Avda de Córdoba 21",
          "tipo": "intercambiador",
          "accesos": [
            {
              "nombre": "Avda. Córdoba impares",
              "descripcion": "Avda de Córdoba 21",
              "tipo": "acceso",
              "accesible": false,
              "lat": "40.3842",
              "lon": "-3.69788"
            }
          ],
          "ascensores": [
            {
              "nombre": "Ascensor",
              "descripcion": "Avda de Córdoba SN",
              "tipo": "ascensor",
              "accesible": false,
              "lat": "40.38389",
              "lon": "-3.69837"
            }
          ],
          "accesible": true,
          "parent_station": "",
          "lat": "40.38409",
          "lon": "-3.69788"
        },
        "est_4_268": {
          "nombre": "HOSPITAL 12 DE OCTUBRE",
          "descripcion": "Avda de Córdoba 49",
          "tipo": "intercambiador",
          "accesos": [
            {
              "nombre": "Glorieta de Málaga",
              "descripcion": "Avda de Córdoba SN",
              "tipo": "acceso",
              "accesible": false,
              "lat": "40.37549",
              "lon": "-3.69588"
            }
          ],
          "ascensores": [
            {
              "nombre": "Ascensor",
              "descripcion": "Avda de Córdoba SN",
              "tipo": "ascensor",
              "accesible": false,
              "lat": "40.37521",
              "lon": "-3.69575"
            }
          ],
          "accesible": true,
          "parent_station": "",
          "lat": "40.37503",
          "lon": "-3.69585"
        },
        "est_4_269": {
          "nombre": "SAN FERMIN-ORCASUR",
          "descripcion": "Avda de Andalucía 9",
          "tipo": "intercambiador",
          "accesos": [
            {
              "nombre": "Avda. Andalucia pares",
              "descripcion": "Avda de Andalucía 20",
              "tipo": "acceso",
              "accesible": false,
              "lat": "40.36988",
              "lon": "-3.69462"
            }
          ],
          "ascensores": [],
          "accesible": true,
          "parent_station": "",
          "lat": "40.36999",
          "lon": "-3.69418"
        },
        "est_4_270": {
          "nombre": "CIUDAD DE LOS ANGELES",
          "descripcion": "Avda de Andalucía 38",
          "tipo": "intercambiador",
          "accesos": [
            {
              "nombre": "Tertulia",
              "descripcion": "Calle de la Tertulia 17",
              "tipo": "acceso",
              "accesible": false,
              "lat": "40.35954",
              "lon": "-3.69295"
            },
            {
              "nombre": "Paseo Gigantes y Cabezudos",
              "descripcion": "Paseo de Gigantes y Cabezudos 10",
              "tipo": "acceso",
              "accesible": false,
              "lat": "40.36005",
              "lon": "-3.69367"
            }
          ],
          "ascensores": [
            {
              "nombre": "Ascensor",
              "descripcion": "Paseo de Gigantes y Cabezudos 12",
              "tipo": "ascensor",
              "accesible": false,
              "lat": "40.35973",
              "lon": "-3.69366"
            }
          ],
          "accesible": true,
          "parent_station": "",
          "lat": "40.35959",
          "lon": "-3.69363"
        },
        "est_4_271": {
          "nombre": "VILLAVERDE BAJO CRUCE",
          "descripcion": "Avda de Andalucía 38",
          "tipo": "intercambiador",
          "accesos": [
            {
              "nombre": "Santiago Amón",
              "descripcion": "Calle de Santiago Amón 1",
              "tipo": "acceso",
              "accesible": false,
              "lat": "40.35057",
              "lon": "-3.69335"
            },
            {
              "nombre": "Santa Petronila",
              "descripcion": "Calle de Santa Petronila 3",
              "tipo": "acceso",
              "accesible": false,
              "lat": "40.35109",
              "lon": "-3.69256"
            }
          ],
          "ascensores": [],
          "accesible": true,
          "parent_station": "",
          "lat": "40.35089",
          "lon": "-3.69265"
        },
        "est_4_272": {
          "nombre": "SAN CRISTOBAL",
          "descripcion": "Avda de Andalucía 81",
          "tipo": "intercambiador",
          "accesos": [
            {
              "nombre": "Moncada",
              "descripcion": "Calle de Moncada 102",
              "tipo": "acceso",
              "accesible": false,
              "lat": "40.34112",
              "lon": "-3.69249"
            }
          ],
          "ascensores": [
            {
              "nombre": "Ascensor",
              "descripcion": "Calle de Moncada 101",
              "tipo": "ascensor",
              "accesible": false,
              "lat": "40.34145",
              "lon": "-3.69248"
            }
          ],
          "accesible": true,
          "parent_station": "",
          "lat": "40.34154",
          "lon": "-3.69318"
        },
        "est_4_273": {
          "nombre": "VILLAVERDE ALTO",
          "descripcion": "Calle del Valle de Tobalina 56",
          "tipo": "intercambiador",
          "accesos": [],
          "ascensores": [
            {
              "nombre": "Ascensor",
              "descripcion": "Calle del Valle de Tobalina 54",
              "tipo": "ascensor",
              "accesible": false,
              "lat": "40.34104",
              "lon": "-3.71278"
            }
          ],
          "accesible": true,
          "parent_station": "",
          "lat": "40.34123",
          "lon": "-3.71199"
        },
        "est_4_43": {
          "nombre": "LEGAZPI",
          "descripcion": "Plaza de Legazpi 2 B",
          "tipo": "intercambiador",
          "accesos": [
            {
              "nombre": "Plaza de Legazpi",
              "descripcion": "Plaza de Legazpi 1",
              "tipo": "acceso",
              "accesible": false,
              "lat": "40.39159",
              "lon": "-3.69484"
            },
            {
              "nombre": "Beata María Ana de Jesús",
              "descripcion": "Paseo de las Delicias 130",
              "tipo": "acceso",
              "accesible": false,
              "lat": "40.39328",
              "lon": "-3.69493"
            },
            {
              "nombre": "Plaza de Legazpi esquina Bolivar",
              "descripcion": "Plaza de Legazpi 2",
              "tipo": "acceso",
              "accesible": false,
              "lat": "40.39139",
              "lon": "-3.69454"
            }
          ],
          "ascensores": [
            {
              "nombre": "Ascensor",
              "descripcion": "Plaza de Legazpi 1",
              "tipo": "ascensor",
              "accesible": false,
              "lat": "40.39147",
              "lon": "-3.69463"
            }
          ],
          "accesible": true,
          "parent_station": "",
          "lat": "40.39116",
          "lon": "-3.69511"
        },
        "est_4_44": {
          "nombre": "DELICIAS",
          "descripcion": "Paseo de las Delicias 60",
          "tipo": "intercambiador",
          "accesos": [
            {
              "nombre": "Cáceres",
              "descripcion": "Paseo de las Delicias 78",
              "tipo": "acceso",
              "accesible": false,
              "lat": "40.39861",
              "lon": "-3.69433"
            },
            {
              "nombre": "Ciudad Real",
              "descripcion": "Paseo de las Delicias 60",
              "tipo": "acceso",
              "accesible": false,
              "lat": "40.39978",
              "lon": "-3.6942"
            },
            {
              "nombre": "Pº de las Delicias impares",
              "descripcion": "Paseo de las Delicias 61 A",
              "tipo": "acceso",
              "accesible": false,
              "lat": "40.40024",
              "lon": "-3.6939"
            }
          ],
          "ascensores": [],
          "accesible": true,
          "parent_station": "",
          "lat": "40.3999",
          "lon": "-3.6942"
        },
        "est_4_45": {
          "nombre": "PALOS DE LA FRONTERA",
          "descripcion": "Calle de Palos de la Frontera 33",
          "tipo": "intercambiador",
          "accesos": [
            {
              "nombre": "Paseo de las Delicias",
              "descripcion": "Calle de Palos de la Frontera 42 A",
              "tipo": "acceso",
              "accesible": false,
              "lat": "40.40293",
              "lon": "-3.69396"
            },
            {
              "nombre": "Palos de la Frontera impares",
              "descripcion": "Calle de Palos de la Frontera 29",
              "tipo": "acceso",
              "accesible": false,
              "lat": "40.40316",
              "lon": "-3.6944"
            }
          ],
          "ascensores": [
            {
              "nombre": "Ascensor",
              "descripcion": "Calle de Palos de la Frontera 33",
              "tipo": "ascensor",
              "accesible": false,
              "lat": "40.40314",
              "lon": "-3.69414"
            }
          ],
          "accesible": true,
          "parent_station": "",
          "lat": "40.40307",
          "lon": "-3.69423"
        },
        "est_4_46": {
          "nombre": "EMBAJADORES",
          "descripcion": "Gta de Embajadores 10",
          "tipo": "intercambiador",
          "accesos": [
            {
              "nombre": "Embajadores",
              "descripcion": "Gta de Embajadores 5",
              "tipo": "acceso",
              "accesible": false,
              "lat": "40.40459",
              "lon": "-3.70251"
            },
            {
              "nombre": "Pº Esperanza",
              "descripcion": "Paseo de la Esperanza 2 A",
              "tipo": "acceso",
              "accesible": false,
              "lat": "40.40376",
              "lon": "-3.70656"
            }
          ],
          "ascensores": [
            {
              "nombre": "Ascensor",
              "descripcion": "Gta de Embajadores 7",
              "tipo": "ascensor",
              "accesible": false,
              "lat": "40.40467",
              "lon": "-3.7029"
            }
          ],
          "accesible": true,
          "parent_station": "",
          "lat": "40.40513",
          "lon": "-3.70268"
        },
        "est_4_47": {
          "nombre": "LAVAPIES",
          "descripcion": "Plaza de Lavapiés 7",
          "tipo": "intercambiador",
          "accesos": [],
          "ascensores": [],
          "accesible": true,
          "parent_station": "",
          "lat": "40.40851",
          "lon": "-3.7009"
        },
        "est_4_49": {
          "nombre": "CALLAO",
          "descripcion": "Plaza del Callao 3",
          "tipo": "intercambiador",
          "accesos": [
            {
              "nombre": "Centro Comercial",
              "descripcion": "Calle del Carmen 28",
              "tipo": "acceso",
              "accesible": false,
              "lat": "40.41971",
              "lon": "-3.70549"
            },
            {
              "nombre": "Plaza de Callao",
              "descripcion": "Plaza del Callao 1",
              "tipo": "acceso",
              "accesible": false,
              "lat": "40.42002",
              "lon": "-3.70581"
            },
            {
              "nombre": "Gran Vía",
              "descripcion": "Calle  Gran Vía 39",
              "tipo": "acceso",
              "accesible": false,
              "lat": "40.42014",
              "lon": "-3.70524"
            },
            {
              "nombre": "Palacio de la Prensa",
              "descripcion": "Calle  Gran Vía 46",
              "tipo": "acceso",
              "accesible": false,
              "lat": "40.42049",
              "lon": "-3.70607"
            },
            {
              "nombre": "Jacometrezo",
              "descripcion": "Calle de Jacometrezo 1",
              "tipo": "acceso",
              "accesible": false,
              "lat": "40.42009",
              "lon": "-3.70613"
            }
          ],
          "ascensores": [
            {
              "nombre": "Ascensor",
              "descripcion": "Calle de Jacometrezo 1",
              "tipo": "ascensor",
              "accesible": false,
              "lat": "40.4201",
              "lon": "-3.70614"
            },
            {
              "nombre": "Ascensor",
              "descripcion": "Plaza del Callao 1",
              "tipo": "ascensor",
              "accesible": false,
              "lat": "40.42013",
              "lon": "-3.7058"
            }
          ],
          "accesible": true,
          "parent_station": "",
          "lat": "40.42014",
          "lon": "-3.70566"
        },
        "est_4_50": {
          "nombre": "PLAZA DE ESPAÑA",
          "descripcion": "Plaza de España 1",
          "tipo": "intercambiador",
          "accesos": [
            {
              "nombre": "Ministerio de Justicia",
              "descripcion": "Calle de San Bernardo 45",
              "tipo": "acceso",
              "accesible": false,
              "lat": "40.4242",
              "lon": "-3.70746"
            },
            {
              "nombre": "Leganitos",
              "descripcion": "Plaza de Gran Vía 73",
              "tipo": "acceso",
              "accesible": false,
              "lat": "40.42319",
              "lon": "-3.71097"
            },
            {
              "nombre": "Plaza de España",
              "descripcion": "Plaza de España 18",
              "tipo": "acceso",
              "accesible": false,
              "lat": "40.42415",
              "lon": "-3.71196"
            },
            {
              "nombre": "Reyes",
              "descripcion": "Calle de los Reyes 1",
              "tipo": "acceso",
              "accesible": false,
              "lat": "40.42364",
              "lon": "-3.71067"
            }
          ],
          "ascensores": [
            {
              "nombre": "Ascensor",
              "descripcion": "Plaza del Conde de Toreno 1",
              "tipo": "ascensor",
              "accesible": false,
              "lat": "40.42435",
              "lon": "-3.70925"
            },
            {
              "nombre": "Ascensor",
              "descripcion": "Plaza del Conde de Toreno 1",
              "tipo": "ascensor",
              "accesible": false,
              "lat": "40.42435",
              "lon": "-3.70924"
            },
            {
              "nombre": "Ascensor",
              "descripcion": "Plaza de España 18",
              "tipo": "ascensor",
              "accesible": false,
              "lat": "40.42414",
              "lon": "-3.71182"
            }
          ],
          "accesible": true,
          "parent_station": "",
          "lat": "40.42342",
          "lon": "-3.7112"
        },
        "est_4_51": {
          "nombre": "VENTURA RODRIGUEZ",
          "descripcion": "Calle de la Princesa 22",
          "tipo": "intercambiador",
          "accesos": [
            {
              "nombre": "Princesa impares",
              "descripcion": "Calle de la Princesa 23",
              "tipo": "acceso",
              "accesible": false,
              "lat": "40.42697",
              "lon": "-3.71375"
            },
            {
              "nombre": "Princesa pares",
              "descripcion": "Calle de la Princesa 22",
              "tipo": "acceso",
              "accesible": false,
              "lat": "40.42718",
              "lon": "-3.71358"
            }
          ],
          "ascensores": [],
          "accesible": true,
          "parent_station": "",
          "lat": "40.42709",
          "lon": "-3.71341"
        },
        "est_4_52": {
          "nombre": "ARGÜELLES",
          "descripcion": "Calle de Alberto Aguilera 72",
          "tipo": "intercambiador",
          "accesos": [
            {
              "nombre": "Alberto Aguilera",
              "descripcion": "Calle de Alberto Aguilera 70",
              "tipo": "acceso",
              "accesible": false,
              "lat": "40.43068",
              "lon": "-3.71559"
            },
            {
              "nombre": "Altamirano",
              "descripcion": "Calle de la Princesa 65",
              "tipo": "acceso",
              "accesible": false,
              "lat": "40.43138",
              "lon": "-3.71692"
            },
            {
              "nombre": "Guzmán el Bueno",
              "descripcion": "Calle de Alberto Aguilera 62",
              "tipo": "acceso",
              "accesible": false,
              "lat": "40.43056",
              "lon": "-3.71435"
            }
          ],
          "ascensores": [
            {
              "nombre": "Guzmán el Bueno - Ascensor",
              "descripcion": "Calle de Alberto Aguilera 62",
              "tipo": "ascensor",
              "accesible": false,
              "lat": "40.43056",
              "lon": "-3.71442"
            },
            {
              "nombre": "Alberto Aguilera - Ascensor",
              "descripcion": "Calle de Alberto Aguilera 70",
              "tipo": "ascensor",
              "accesible": false,
              "lat": "40.43068",
              "lon": "-3.71556"
            }
          ],
          "accesible": false,
          "parent_station": "",
          "lat": "40.43066",
          "lon": "-3.71596"
        },
        "par_4_264": {
          "nombre": "HORTALEZA",
          "descripcion": "Calle del Capitán Cortés 4",
          "tipo": "estacion_principal",
          "accesos": [],
          "ascensores": [],
          "accesible": true,
          "parent_station": "",
          "lat": "40.47537",
          "lon": "-3.65257"
        },
        "par_4_265": {
          "nombre": "MANOTERAS",
          "descripcion": "Calle de Bacares 24",
          "tipo": "estacion_principal",
          "accesos": [],
          "ascensores": [],
          "accesible": true,
          "parent_station": "",
          "lat": "40.47687",
          "lon": "-3.6629"
        },
        "par_4_266": {
          "nombre": "PINAR DE CHAMARTIN",
          "descripcion": "Calle de Arturo Soria 330",
          "tipo": "estacion_principal",
          "accesos": [],
          "ascensores": [],
          "accesible": true,
          "parent_station": "est_4_263",
          "lat": "40.48014",
          "lon": "-3.66676"
        },
        "par_4_54": {
          "nombre": "ARGÜELLES",
          "descripcion": "Calle de Alberto Aguilera 72",
          "tipo": "estacion_principal",
          "accesos": [],
          "ascensores": [],
          "accesible": false,
          "parent_station": "est_4_52",
          "lat": "40.4306",
          "lon": "-3.71596"
        },
        "par_4_55": {
          "nombre": "SAN BERNARDO",
          "descripcion": "Gta de Ruiz Jiménez 5",
          "tipo": "estacion_principal",
          "accesos": [],
          "ascensores": [],
          "accesible": false,
          "parent_station": "est_4_39",
          "lat": "40.42966",
          "lon": "-3.70567"
        },
        "par_4_56": {
          "nombre": "BILBAO",
          "descripcion": "Calle de Sagasta 5",
          "tipo": "estacion_principal",
          "accesos": [],
          "ascensores": [],
          "accesible": false,
          "parent_station": "est_4_9",
          "lat": "40.42885",
          "lon": "-3.70114"
        },
        "par_4_57": {
          "nombre": "ALONSO MARTINEZ",
          "descripcion": "Plaza de Alonso Martínez 4",
          "tipo": "estacion_principal",
          "accesos": [],
          "ascensores": [],
          "accesible": false,
          "parent_station": "",
          "lat": "40.42772",
          "lon": "-3.69594"
        },
        "par_4_58": {
          "nombre": "COLON",
          "descripcion": "Plaza de Colón 2",
          "tipo": "estacion_principal",
          "accesos": [],
          "ascensores": [],
          "accesible": false,
          "parent_station": "",
          "lat": "40.42542",
          "lon": "-3.69101"
        },
        "par_4_59": {
          "nombre": "SERRANO",
          "descripcion": "Calle de Goya 19",
          "tipo": "estacion_principal",
          "accesos": [],
          "ascensores": [],
          "accesible": false,
          "parent_station": "",
          "lat": "40.42543",
          "lon": "-3.68663"
        },
        "par_4_60": {
          "nombre": "VELAZQUEZ",
          "descripcion": "Calle de Núñez de Balboa 33",
          "tipo": "estacion_principal",
          "accesos": [],
          "ascensores": [],
          "accesible": false,
          "parent_station": "",
          "lat": "40.42503",
          "lon": "-3.68292"
        },
        "par_4_61": {
          "nombre": "GOYA",
          "descripcion": "Calle de Goya 68",
          "tipo": "estacion_principal",
          "accesos": [],
          "ascensores": [],
          "accesible": true,
          "parent_station": "est_4_30",
          "lat": "40.42481",
          "lon": "-3.67685"
        },
        "par_4_62": {
          "nombre": "LISTA",
          "descripcion": "Calle del Conde de Peñalver 45",
          "tipo": "estacion_principal",
          "accesos": [],
          "ascensores": [],
          "accesible": false,
          "parent_station": "",
          "lat": "40.42917",
          "lon": "-3.67541"
        },
        "par_4_63": {
          "nombre": "DIEGO DE LEON",
          "descripcion": "Calle de Diego de León 69",
          "tipo": "estacion_principal",
          "accesos": [],
          "ascensores": [],
          "accesible": false,
          "parent_station": "",
          "lat": "40.43468",
          "lon": "-3.67495"
        },
        "par_4_64": {
          "nombre": "AVENIDA DE AMERICA",
          "descripcion": "Avda de América 9 A",
          "tipo": "estacion_principal",
          "accesos": [],
          "ascensores": [],
          "accesible": false,
          "parent_station": "est_90_4",
          "lat": "40.43803",
          "lon": "-3.67664"
        },
        "par_4_65": {
          "nombre": "PROSPERIDAD",
          "descripcion": "Plaza de la Prosperidad 4",
          "tipo": "estacion_principal",
          "accesos": [],
          "ascensores": [],
          "accesible": false,
          "parent_station": "",
          "lat": "40.44419",
          "lon": "-3.67482"
        },
        "par_4_66": {
          "nombre": "ALFONSO XIII",
          "descripcion": "Calle de López de Hoyos 190",
          "tipo": "estacion_principal",
          "accesos": [],
          "ascensores": [],
          "accesible": false,
          "parent_station": "",
          "lat": "40.44825",
          "lon": "-3.66791"
        },
        "par_4_67": {
          "nombre": "AVENIDA DE LA PAZ",
          "descripcion": "Avda de Ramón y Cajal 107",
          "tipo": "estacion_principal",
          "accesos": [],
          "ascensores": [],
          "accesible": false,
          "parent_station": "",
          "lat": "40.45354",
          "lon": "-3.66118"
        },
        "par_4_68": {
          "nombre": "ARTURO SORIA",
          "descripcion": "Calle de Arturo Soria 172",
          "tipo": "estacion_principal",
          "accesos": [],
          "ascensores": [],
          "accesible": false,
          "parent_station": "",
          "lat": "40.45583",
          "lon": "-3.65618"
        },
        "par_4_69": {
          "nombre": "ESPERANZA",
          "descripcion": "Calle de Andorra 51",
          "tipo": "estacion_principal",
          "accesos": [],
          "ascensores": [],
          "accesible": false,
          "parent_station": "",
          "lat": "40.45945",
          "lon": "-3.64582"
        },
        "par_4_70": {
          "nombre": "CANILLAS",
          "descripcion": "Avda de Machupichu 64",
          "tipo": "estacion_principal",
          "accesos": [],
          "ascensores": [],
          "accesible": true,
          "parent_station": "",
          "lat": "40.46381",
          "lon": "-3.6356"
        },
        "par_4_71": {
          "nombre": "MAR DE CRISTAL",
          "descripcion": "Gta del Mar de Cristal 1 B",
          "tipo": "estacion_principal",
          "accesos": [],
          "ascensores": [],
          "accesible": true,
          "parent_station": "",
          "lat": "40.46943",
          "lon": "-3.63832"
        },
        "par_4_72": {
          "nombre": "SAN LORENZO",
          "descripcion": "Avda de la Barranquilla 9",
          "tipo": "estacion_principal",
          "accesos": [],
          "ascensores": [],
          "accesible": true,
          "parent_station": "",
          "lat": "40.47447",
          "lon": "-3.63958"
        },
        "par_4_73": {
          "nombre": "PARQUE DE SANTA MARIA",
          "descripcion": "Calle de Santa Virgilia 1",
          "tipo": "estacion_principal",
          "accesos": [],
          "ascensores": [],
          "accesible": true,
          "parent_station": "",
          "lat": "40.47711",
          "lon": "-3.64524"
        },
        "est_4_264": {
          "nombre": "HORTALEZA",
          "descripcion": "Calle del Capitán Cortés 4",
          "tipo": "intercambiador",
          "accesos": [
            {
              "nombre": "Capitán Cortés",
              "descripcion": "Calle del Capitán Cortés 2",
              "tipo": "acceso",
              "accesible": false,
              "lat": "40.47488",
              "lon": "-3.65234"
            },
            {
              "nombre": "Costa del Sol",
              "descripcion": "Calle de la Costa del sol 20 D",
              "tipo": "acceso",
              "accesible": false,
              "lat": "40.4742",
              "lon": "-3.65204"
            }
          ],
          "ascensores": [],
          "accesible": true,
          "parent_station": "",
          "lat": "40.47537",
          "lon": "-3.65257"
        },
        "est_4_265": {
          "nombre": "MANOTERAS",
          "descripcion": "Calle de Bacares 24",
          "tipo": "intercambiador",
          "accesos": [
            {
              "nombre": "Vélez Rubio",
              "descripcion": "Calle de Vélez Rubio 1 D",
              "tipo": "acceso",
              "accesible": false,
              "lat": "40.47684",
              "lon": "-3.66285"
            }
          ],
          "ascensores": [
            {
              "nombre": "Ascensor",
              "descripcion": "Calle de Vélez Rubio 1 D",
              "tipo": "ascensor",
              "accesible": false,
              "lat": "40.47684",
              "lon": "-3.66285"
            }
          ],
          "accesible": true,
          "parent_station": "",
          "lat": "40.47687",
          "lon": "-3.6629"
        },
        "est_4_57": {
          "nombre": "ALONSO MARTINEZ",
          "descripcion": "Plaza de Alonso Martínez 4",
          "tipo": "intercambiador",
          "accesos": [
            {
              "nombre": "Santa Bárbara",
              "descripcion": "Plaza de Santa Bárbara 5",
              "tipo": "acceso",
              "accesible": false,
              "lat": "40.42744",
              "lon": "-3.69593"
            },
            {
              "nombre": "Génova pares",
              "descripcion": "Calle de Génova 2",
              "tipo": "acceso",
              "accesible": false,
              "lat": "40.42738",
              "lon": "-3.69544"
            },
            {
              "nombre": "Santa Engracia",
              "descripcion": "Plaza de Alonso Martínez 4",
              "tipo": "acceso",
              "accesible": false,
              "lat": "40.42803",
              "lon": "-3.6956"
            },
            {
              "nombre": "Hermanos Álvarez Quintero",
              "descripcion": "Calle de Sagasta 30",
              "tipo": "acceso",
              "accesible": false,
              "lat": "40.42784",
              "lon": "-3.69707"
            }
          ],
          "ascensores": [],
          "accesible": false,
          "parent_station": "",
          "lat": "40.42772",
          "lon": "-3.69594"
        },
        "est_4_58": {
          "nombre": "COLON",
          "descripcion": "Plaza de Colón 2",
          "tipo": "intercambiador",
          "accesos": [
            {
              "nombre": "Génova impares",
              "descripcion": "Calle de Génova 29",
              "tipo": "acceso",
              "accesible": false,
              "lat": "40.42573",
              "lon": "-3.69167"
            },
            {
              "nombre": "Génova pares",
              "descripcion": "Calle de Génova 28",
              "tipo": "acceso",
              "accesible": false,
              "lat": "40.4254",
              "lon": "-3.69167"
            }
          ],
          "ascensores": [],
          "accesible": false,
          "parent_station": "",
          "lat": "40.42542",
          "lon": "-3.69101"
        },
        "est_4_59": {
          "nombre": "SERRANO",
          "descripcion": "Calle de Goya 19",
          "tipo": "intercambiador",
          "accesos": [
            {
              "nombre": "Goya pares",
              "descripcion": "Calle de Goya 4",
              "tipo": "acceso",
              "accesible": false,
              "lat": "40.42528",
              "lon": "-3.6876"
            },
            {
              "nombre": "Goya impares",
              "descripcion": "Calle de Goya 23",
              "tipo": "acceso",
              "accesible": false,
              "lat": "40.4254",
              "lon": "-3.68608"
            }
          ],
          "ascensores": [],
          "accesible": false,
          "parent_station": "",
          "lat": "40.42543",
          "lon": "-3.68663"
        },
        "est_4_60": {
          "nombre": "VELAZQUEZ",
          "descripcion": "Calle de Núñez de Balboa 33",
          "tipo": "intercambiador",
          "accesos": [
            {
              "nombre": "Goya impares",
              "descripcion": "Calle de Goya 41",
              "tipo": "acceso",
              "accesible": false,
              "lat": "40.42525",
              "lon": "-3.68331"
            },
            {
              "nombre": "Goya pares",
              "descripcion": "Calle de Goya 20",
              "tipo": "acceso",
              "accesible": false,
              "lat": "40.42507",
              "lon": "-3.68345"
            }
          ],
          "ascensores": [],
          "accesible": false,
          "parent_station": "",
          "lat": "40.42503",
          "lon": "-3.68292"
        },