{
  "stations": [
    {
      "id": "arroyofresno",
      "name": "ARROYOFRESNO",
      "lat": 40.49089826566541,
      "lon": -3.7260354006891747,
      "lines": [
        "7"
      ],
      "codigo_empresa": "0722",
      "id_estacion": "",
      "id_modal": "",
      "tipo": "metro"
    },
    {
      "id": "rivas_urbanizaciones",
      "name": "RIVAS URBANIZACIONES",
      "lat": 40.366771502577514,
      "lon": -3.5472758067455525,
      "lines": [
        "9"
      ],
      "codigo_empresa": "0924",
      "id_estacion": "",
      "id_modal": "",
      "tipo": "metro"
    },
    {
      "id": "noviciado",
      "name": "NOVICIADO",
      "lat": 40.424842233578424,
      "lon": -3.7074190426136306,
      "lines": [
        "2"
      ],
      "codigo_empresa": "0211",
      "id_estacion": "",
      "id_modal": "",
      "tipo": "metro"
    },
    {
      "id": "lago",
      "name": "LAGO",
      "lat": 40.416414110991504,
      "lon": -3.7356310593736235,
      "lines": [
        "10"
      ],
      "codigo_empresa": "1013",
      "id_estacion": "",
      "id_modal": "",
      "tipo": "metro"
    },
    {
      "id": "batan",
      "name": "BATAN",
      "lat": 40.40786020840237,
      "lon": -3.7531099371759526,
      "lines": [
        "10"
      ],
      "codigo_empresa": "1014",
      "id_estacion": "",
      "id_modal": "",
      "tipo": "metro"
    },
    {
      "id": "sol",
      "name": "SOL",
      "lat": 40.41687606089402,
      "lon": -3.703261648575282,
      "lines": [
        "1"
      ],
      "codigo_empresa": "0112",
      "id_estacion": "",
      "id_modal": "",
      "tipo": "metro"
    },
    {
      "id": "sol",
      "name": "SOL",
      "lat": 40.4168474580948,
      "lon": -3.7032613507552123,
      "lines": [
        "2"
      ],
      "codigo_empresa": "0208",
      "id_estacion": "",
      "id_modal": "",
      "tipo": "metro"
    },
    {
      "id": "sol",
      "name": "SOL",
      "lat": 40.41681647165373,
      "lon": -3.7032610281165037,
      "lines": [
        "3"
      ],
      "codigo_empresa": "0306",
      "id_estacion": "",
      "id_modal": "",
      "tipo": "metro"
    },
    {
      "id": "nuevos_ministerios",
      "name": "NUEVOS MINISTERIOS",
      "lat": 40.446621215182525,
      "lon": -3.6924064585114573,
      "lines": [
        "6"
      ],
      "codigo_empresa": "0618",
      "id_estacion": "",
      "id_modal": "",
      "tipo": "metro"
    },
    {
      "id": "estrella",
      "name": "ESTRELLA",
      "lat": 40.41147221920649,
      "lon": -3.6617852707606366,
      "lines": [
        "9"
      ],
      "codigo_empresa": "0915",
      "id_estacion": "",
      "id_modal": "",
      "tipo": "metro"
    },
    {
      "id": "nuevos_ministerios",
      "name": "NUEVOS MINISTERIOS",
      "lat": 40.44658546516346,
      "lon": -3.6924060916320443,
      "lines": [
        "10"
      ],
      "codigo_empresa": "1007",
      "id_estacion": "",
      "id_modal": "",
      "tipo": "metro"
    },
    {
      "id": "lista",
      "name": "LISTA",
      "lat": 40.429168520255786,
      "lon": -3.675409822278686,
      "lines": [
        "4"
      ],
      "codigo_empresa": "0409",
      "id_estacion": "",
      "id_modal": "",
      "tipo": "metro"
    },
    {
      "id": "la_poveda",
      "name": "LA POVEDA",
      "lat": 40.31901573079284,
      "lon": -3.477447350588455,
      "lines": [
        "9"
      ],
      "codigo_empresa": "0927",
      "id_estacion": "",
      "id_modal": "",
      "tipo": "metro"
    },
    {
      "id": "empalme",
      "name": "EMPALME",
      "lat": 40.39057255783158,
      "lon": -3.765347875572339,
      "lines": [
        "5"
      ],
      "codigo_empresa": "0528",
      "id_estacion": "",
      "id_modal": "",
      "tipo": "metro"
    },
    {
      "id": "manoteras",
      "name": "MANOTERAS",
      "lat": 40.476874226693596,
      "lon": -3.6628954758911214,
      "lines": [
        "4"
      ],
      "codigo_empresa": "0422",
      "id_estacion": "",
      "id_modal": "",
      "tipo": "metro"
    },
    {
      "id": "san_fermin_orcasur",
      "name": "SAN FERMIN-ORCASUR",
      "lat": 40.36999093055091,
      "lon": -3.6941764145036964,
      "lines": [
        "3"
      ],
      "codigo_empresa": "0353",
      "id_estacion": "",
      "id_modal": "",
      "tipo": "metro"
    },
    {
      "id": "congosto",
      "name": "CONGOSTO",
      "lat": 40.37238237036666,
      "lon": -3.6188413501245416,
      "lines": [
        "1"
      ],
      "codigo_empresa": "0127",
      "id_estacion": "",
      "id_modal": "",
      "tipo": "metro"
    },
    {
      "id": "ciudad_de_los_angeles",
      "name": "CIUDAD DE LOS ANGELES",
      "lat": 40.359585428137,
      "lon": -3.6936264441706634,
      "lines": [
        "3"
      ],
      "codigo_empresa": "0354",
      "id_estacion": "",
      "id_modal": "",
      "tipo": "metro"
    },
    {
      "id": "san_cristobal",
      "name": "SAN CRISTOBAL",
      "lat": 40.34154193600964,
      "lon": -3.6931802991863165,
      "lines": [
        "3"
      ],
      "codigo_empresa": "0356",
      "id_estacion": "",
      "id_modal": "",
      "tipo": "metro"
    },
    {
      "id": "puerta_del_sur",
      "name": "PUERTA DEL SUR",
      "lat": 40.34543086550063,
      "lon": -3.8124891797456804,
      "lines": [
        "12"
      ],
      "codigo_empresa": "1201",
      "id_estacion": "",
      "id_modal": "",
      "tipo": "metro"
    },
    {
      "id": "coslada_central",
      "name": "COSLADA CENTRAL",
      "lat": 40.42373620597773,
      "lon": -3.5611923494996556,
      "lines": [
        "7"
      ],
      "codigo_empresa": "0755",
      "id_estacion": "",
      "id_modal": "",
      "tipo": "metro"
    },
    {
      "id": "garcia_noblejas",
      "name": "GARCIA NOBLEJAS",
      "lat": 40.428423190545146,
      "lon": -3.633299465727318,
      "lines": [
        "7"
      ],
      "codigo_empresa": "0704",
      "id_estacion": "",
      "id_modal": "",
      "tipo": "metro"
    },
    {
      "id": "barrio_de_la_concepcion",
      "name": "BARRIO DE LA CONCEPCION",
      "lat": 40.439099399993054,
      "lon": -3.6520040012947503,
      "lines": [
        "7"
      ],
      "codigo_empresa": "0707",
      "id_estacion": "",
      "id_modal": "",
      "tipo": "metro"
    },
    {
      "id": "anton_martin",
      "name": "ANTON MARTIN",
      "lat": 40.41246356569,
      "lon": -3.6993729633448895,
      "lines": [
        "1"
      ],
      "codigo_empresa": "0114",
      "id_estacion": "",
      "id_modal": "",
      "tipo": "metro"
    },
    {
      "id": "gregorio_mara_on",
      "name": "GREGORIO MARAÑON",
      "lat": 40.43825099442897,
      "lon": -3.6914828621190114,
      "lines": [
        "7"
      ],
      "codigo_empresa": "0711",
      "id_estacion": "",
      "id_modal": "",
      "tipo": "metro"
    },
    {
      "id": "alonso_cano",
      "name": "ALONSO CANO",
      "lat": 40.43837537611044,
      "lon": -3.6992456432372576,
      "lines": [
        "7"
      ],
      "codigo_empresa": "0712",
      "id_estacion": "",
      "id_modal": "",
      "tipo": "metro"
    },
    {
      "id": "francos_rodriguez",
      "name": "FRANCOS RODRIGUEZ",
      "lat": 40.45648182077827,
      "lon": -3.712386672198295,
      "lines": [
        "7"
      ],
      "codigo_empresa": "0716",
      "id_estacion": "",
      "id_modal": "",
      "tipo": "metro"
    },
    {
      "id": "antonio_machado",
      "name": "ANTONIO MACHADO",
      "lat": 40.47021772039073,
      "lon": -3.7176948552412226,
      "lines": [
        "7"
      ],
      "codigo_empresa": "0718",
      "id_estacion": "",
      "id_modal": "",
      "tipo": "metro"
    },
    {
      "id": "arganda_del_rey",
      "name": "ARGANDA DEL REY",
      "lat": 40.303669277437,
      "lon": -3.447518960780649,
      "lines": [
        "9"
      ],
      "codigo_empresa": "0928",
      "id_estacion": "",
      "id_modal": "",
      "tipo": "metro"
    },
    {
      "id": "pe_agrande",
      "name": "PEÑAGRANDE",
      "lat": 40.47592352024965,
      "lon": -3.715824157912478,
      "lines": [
        "7"
      ],
      "codigo_empresa": "0719",
      "id_estacion": "",
      "id_modal": "",
      "tipo": "metro"
    },
    {
      "id": "herrera_oria",
      "name": "HERRERA ORIA",
      "lat": 40.48466278015302,
      "lon": -3.70751021303079,
      "lines": [
        "9"
      ],
      "codigo_empresa": "0901",
      "id_estacion": "",
      "id_modal": "",
      "tipo": "metro"
    },
    {
      "id": "barrio_del_pilar",
      "name": "BARRIO DEL PILAR",
      "lat": 40.47688906880558,
      "lon": -3.703164503841757,
      "lines": [
        "9"
      ],
      "codigo_empresa": "0902",
      "id_estacion": "",
      "id_modal": "",
      "tipo": "metro"
    },
    {
      "id": "cuatro_vientos",
      "name": "CUATRO VIENTOS",
      "lat": 40.37770688876972,
      "lon": -3.7915151998735666,
      "lines": [
        "10"
      ],
      "codigo_empresa": "1019",
      "id_estacion": "",
      "id_modal": "",
      "tipo": "metro"
    },
    {
      "id": "cuatro_caminos",
      "name": "CUATRO CAMINOS",
      "lat": 40.44697395278304,
      "lon": -3.703974771978261,
      "lines": [
        "1"
      ],
      "codigo_empresa": "0106",
      "id_estacion": "",
      "id_modal": "",
      "tipo": "metro"
    },
    {
      "id": "buenos_aires",
      "name": "BUENOS AIRES",
      "lat": 40.39156287721576,
      "lon": -3.6539061229836958,
      "lines": [
        "1"
      ],
      "codigo_empresa": "0122",
      "id_estacion": "",
      "id_modal": "",
      "tipo": "metro"
    },
    {
      "id": "puente_de_vallecas",
      "name": "PUENTE DE VALLECAS",
      "lat": 40.39819215100294,
      "lon": -3.669058999478586,
      "lines": [
        "1"
      ],
      "codigo_empresa": "0119",
      "id_estacion": "",
      "id_modal": "",
      "tipo": "metro"
    },
    {
      "id": "sol",
      "name": "SOL",
      "lat": 40.41687606089402,
      "lon": -3.703261648575282,
      "lines": [
        "1"
      ],
      "codigo_empresa": "0112",
      "id_estacion": "",
      "id_modal": "",
      "tipo": "metro"
    },
    {
      "id": "tribunal",
      "name": "TRIBUNAL",
      "lat": 40.42618539559021,
      "lon": -3.70109984950459,
      "lines": [
        "1"
      ],
      "codigo_empresa": "0110",
      "id_estacion": "",
      "id_modal": "",
      "tipo": "metro"
    },
    {
      "id": "tirso_de_molina",
      "name": "TIRSO DE MOLINA",
      "lat": 40.412348094110165,
      "lon": -3.704655268799714,
      "lines": [
        "1"
      ],
      "codigo_empresa": "0113",
      "id_estacion": "",
      "id_modal": "",
      "tipo": "metro"
    },
    {
      "id": "rios_rosas",
      "name": "RIOS ROSAS",
      "lat": 40.44197535635587,
      "lon": -3.701328481177294,
      "lines": [
        "1"
      ],
      "codigo_empresa": "0107",
      "id_estacion": "",
      "id_modal": "",
      "tipo": "metro"
    },
    {
      "id": "pinar_de_chamartin",
      "name": "PINAR DE CHAMARTIN",
      "lat": 40.48013997815096,
      "lon": -3.666804481448275,
      "lines": [
        "1"
      ],
      "codigo_empresa": "0153",
      "id_estacion": "",
      "id_modal": "",
      "tipo": "metro"
    },
    {
      "id": "congosto",
      "name": "CONGOSTO",
      "lat": 40.37238237036666,
      "lon": -3.6188413501245416,
      "lines": [
        "1"
      ],
      "codigo_empresa": "0127",
      "id_estacion": "",
      "id_modal": "",
      "tipo": "metro"
    },
    {
      "id": "anton_martin",
      "name": "ANTON MARTIN",
      "lat": 40.41246356569,
      "lon": -3.6993729633448895,
      "lines": [
        "1"
      ],
      "codigo_empresa": "0114",
      "id_estacion": "",
      "id_modal": "",
      "tipo": "metro"
    },
    {
      "id": "bilbao",
      "name": "BILBAO",
      "lat": 40.42905602410363,
      "lon": -3.7021820657784166,
      "lines": [
        "1"
      ],
      "codigo_empresa": "0109",
      "id_estacion": "",
      "id_modal": "",
      "tipo": "metro"
    },
    {
      "id": "las_suertes",
      "name": "LAS SUERTES",
      "lat": 40.36322802476594,
      "lon": -3.5995326897288193,
      "lines": [
        "1"
      ],
      "codigo_empresa": "0129",
      "id_estacion": "",
      "id_modal": "",
      "tipo": "metro"
    },
    {
      "id": "valdecarros",
      "name": "VALDECARROS",
      "lat": 40.360068133185166,
      "lon": -3.59316035499877,
      "lines": [
        "1"
      ],
      "codigo_empresa": "0130",
      "id_estacion": "",
      "id_modal": "",
      "tipo": "metro"
    },
    {
      "id": "iglesia",
      "name": "IGLESIA",
      "lat": 40.434923478284944,
      "lon": -3.698979992348473,
      "lines": [
        "1"
      ],
      "codigo_empresa": "0108",
      "id_estacion": "",
      "id_modal": "",
      "tipo": "metro"
    },
    {
      "id": "sierra_de_guadalupe",
      "name": "SIERRA DE GUADALUPE",
      "lat": 40.3821642503006,
      "lon": -3.6247174701487794,
      "lines": [
        "1"
      ],
      "codigo_empresa": "0125",
      "id_estacion": "",
      "id_modal": "",
      "tipo": "metro"
    },
    {
      "id": "gran_via",
      "name": "GRAN VIA",
      "lat": 40.420008279509474,
      "lon": -3.701804154062708,
      "lines": [
        "1"
      ],
      "codigo_empresa": "0111",
      "id_estacion": "",
      "id_modal": "",
      "tipo": "metro"
    },
    {
      "id": "bambu",
      "name": "BAMBU",
      "lat": 40.47681536116508,
      "lon": -3.6763674414711556,
      "lines": [
        "1"
      ],
      "codigo_empresa": "0152",
      "id_estacion": "",
      "id_modal": "",
      "tipo": "metro"
    },
    {
      "id": "valdeacederas",
      "name": "VALDEACEDERAS",
      "lat": 40.46442417859868,
      "lon": -3.6950620375087544,
      "lines": [
        "1"
      ],
      "codigo_empresa": "0102",
      "id_estacion": "",
      "id_modal": "",
      "tipo": "metro"
    },
    {
      "id": "portazgo",
      "name": "PORTAZGO",
      "lat": 40.39266410896103,
      "lon": -3.658682425344429,
      "lines": [
        "1"
      ],
      "codigo_empresa": "0121",
      "id_estacion": "",
      "id_modal": "",
      "tipo": "metro"
    },
    {
      "id": "alto_del_arenal",
      "name": "ALTO DEL ARENAL",
      "lat": 40.38977101214874,
      "lon": -3.6452165490428263,
      "lines": [
        "1"
      ],
      "codigo_empresa": "0123",
      "id_estacion": "",
      "id_modal": "",
      "tipo": "metro"
    },
    {
      "id": "miguel_hernandez",
      "name": "MIGUEL HERNANDEZ",
      "lat": 40.38731574705667,
      "lon": -3.6395099006306384,
      "lines": [
        "1"
      ],
      "codigo_empresa": "0124",
      "id_estacion": "",
      "id_modal": "",
      "tipo": "metro"
    },
    {
      "id": "villa_de_vallecas",
      "name": "VILLA DE VALLECAS",
      "lat": 40.379598611419055,
      "lon": -3.621296484882349,
      "lines": [
        "1"
      ],
      "codigo_empresa": "0126",
      "id_estacion": "",
      "id_modal": "",
      "tipo": "metro"
    },
    {
      "id": "chamartin",
      "name": "CHAMARTIN",
      "lat": 40.47202685297345,
      "lon": -3.682590109403099,
      "lines": [
        "1"
      ],
      "codigo_empresa": "0151",
      "id_estacion": "",
      "id_modal": "",
      "tipo": "metro"
    },
    {
      "id": "pacifico",
      "name": "PACIFICO",
      "lat": 40.40126178904823,
      "lon": -3.67513655621334,
      "lines": [
        "1"
      ],
      "codigo_empresa": "0118",
      "id_estacion": "",
      "id_modal": "",
      "tipo": "metro"
    },
    {
      "id": "nueva_numancia",
      "name": "NUEVA NUMANCIA",
      "lat": 40.39553816215716,
      "lon": -3.6641417014856694,
      "lines": [
        "1"
      ],
      "codigo_empresa": "0120",
      "id_estacion": "",
      "id_modal": "",
      "tipo": "metro"
    },
    {
      "id": "menendez_pelayo",
      "name": "MENENDEZ PELAYO",
      "lat": 40.40445052226359,
      "lon": -3.6809794170757697,
      "lines": [
        "1"
      ],
      "codigo_empresa": "0117",
      "id_estacion": "",
      "id_modal": "",
      "tipo": "metro"
    },
    {
      "id": "alvarado",
      "name": "ALVARADO",
      "lat": 40.450331975994324,
      "lon": -3.7033142092757845,
      "lines": [
        "1"
      ],
      "codigo_empresa": "0105",
      "id_estacion": "",
      "id_modal": "",
      "tipo": "metro"
    },
    {
      "id": "estaci_n_del_arte",
      "name": "ESTACIÓN DEL ARTE",
      "lat": 40.40885159837552,
      "lon": -3.692487271050582,
      "lines": [
        "1"
      ],
      "codigo_empresa": "0115",
      "id_estacion": "",
      "id_modal": "",
      "tipo": "metro"
    },
    {
      "id": "atocha_renfe",
      "name": "ATOCHA RENFE",
      "lat": 40.406586814542514,
      "lon": -3.689378110765852,
      "lines": [
        "1"
      ],
      "codigo_empresa": "0116",
      "id_estacion": "",
      "id_modal": "",
      "tipo": "metro"
    },
    {
      "id": "tetuan",
      "name": "TETUAN",
      "lat": 40.46055188266481,
      "lon": -3.698249893972328,
      "lines": [
        "1"
      ],
      "codigo_empresa": "0103",
      "id_estacion": "",
      "id_modal": "",
      "tipo": "metro"
    },
    {
      "id": "la_gavia",
      "name": "LA GAVIA",
      "lat": 40.37019166319747,
      "lon": -3.613463483075256,
      "lines": [
        "1"
      ],
      "codigo_empresa": "0128",
      "id_estacion": "",
      "id_modal": "",
      "tipo": "metro"
    },
    {
      "id": "estrecho",
      "name": "ESTRECHO",
      "lat": 40.45428802582823,
      "lon": -3.7030229599498505,
      "lines": [
        "1"
      ],
      "codigo_empresa": "0104",
      "id_estacion": "",
      "id_modal": "",
      "tipo": "metro"
    },
    {
      "id": "plaza_de_castilla",
      "name": "PLAZA DE CASTILLA",
      "lat": 40.46689603731065,
      "lon": -3.689169587035836,
      "lines": [
        "1"
      ],
      "codigo_empresa": "0101",
      "id_estacion": "",
      "id_modal": "",
      "tipo": "metro"
    },
    {
      "id": "manuel_becerra",
      "name": "MANUEL BECERRA",
      "lat": 40.42790417380744,
      "lon": -3.669258203049727,
      "lines": [
        "2"
      ],
      "codigo_empresa": "0202",
      "id_estacion": "",
      "id_modal": "",
      "tipo": "metro"
    },
    {
      "id": "cuatro_caminos",
      "name": "CUATRO CAMINOS",
      "lat": 40.446974274859556,
      "lon": -3.7039217350429934,
      "lines": [
        "2"
      ],
      "codigo_empresa": "0215",
      "id_estacion": "",
      "id_modal": "",
      "tipo": "metro"
    },
    {
      "id": "noviciado",
      "name": "NOVICIADO",
      "lat": 40.424842233578424,
      "lon": -3.7074190426136306,
      "lines": [
        "2"
      ],
      "codigo_empresa": "0211",
      "id_estacion": "",
      "id_modal": "",
      "tipo": "metro"
    },
    {
      "id": "sol",
      "name": "SOL",
      "lat": 40.4168474580948,
      "lon": -3.7032613507552123,
      "lines": [
        "2"
      ],
      "codigo_empresa": "0208",
      "id_estacion": "",
      "id_modal": "",
      "tipo": "metro"
    },
    {
      "id": "alsacia",
      "name": "ALSACIA",
      "lat": 40.41829269464442,
      "lon": -3.6235060015486664,
      "lines": [
        "2"
      ],
      "codigo_empresa": "0253",
      "id_estacion": "",
      "id_modal": "",
      "tipo": "metro"
    },
    {
      "id": "la_almudena",
      "name": "LA ALMUDENA",
      "lat": 40.42361329068056,
      "lon": -3.6391423303625725,
      "lines": [
        "2"
      ],
      "codigo_empresa": "0252",
      "id_estacion": "",
      "id_modal": "",
      "tipo": "metro"
    },
    {
      "id": "canal",
      "name": "CANAL",
      "lat": 40.43841299799997,
      "lon": -3.704334573354305,
      "lines": [
        "2"
      ],
      "codigo_empresa": "0214",
      "id_estacion": "",
      "id_modal": "",
      "tipo": "metro"
    },
    {
      "id": "quevedo",
      "name": "QUEVEDO",
      "lat": 40.433217315157556,
      "lon": -3.704332861250257,
      "lines": [
        "2"
      ],
      "codigo_empresa": "0213",
      "id_estacion": "",
      "id_modal": "",
      "tipo": "metro"
    },
    {
      "id": "la_elipa",
      "name": "LA ELIPA",
      "lat": 40.426617234977186,
      "lon": -3.6505189139028626,
      "lines": [
        "2"
      ],
      "codigo_empresa": "0251",
      "id_estacion": "",
      "id_modal": "",
      "tipo": "metro"
    },
    {
      "id": "avenida_de_guadalajara",
      "name": "AVENIDA DE GUADALAJARA",
      "lat": 40.42239358382272,
      "lon": -3.6120646096811457,
      "lines": [
        "2"
      ],
      "codigo_empresa": "0254",
      "id_estacion": "",
      "id_modal": "",
      "tipo": "metro"
    },
    {
      "id": "las_rosas",
      "name": "LAS ROSAS",
      "lat": 40.42374843104424,
      "lon": -3.6033055955674373,
      "lines": [
        "2"
      ],
      "codigo_empresa": "0255",
      "id_estacion": "",
      "id_modal": "",
      "tipo": "metro"
    },
    {
      "id": "ventas",
      "name": "VENTAS",
      "lat": 40.430884498813434,
      "lon": -3.6636588664575465,
      "lines": [
        "2"
      ],
      "codigo_empresa": "0201",
      "id_estacion": "",
      "id_modal": "",
      "tipo": "metro"
    },
    {
      "id": "opera",
      "name": "OPERA",
      "lat": 40.418092919493105,
      "lon": -3.7094186087196794,
      "lines": [
        "2"
      ],
      "codigo_empresa": "0209",
      "id_estacion": "",
      "id_modal": "",
      "tipo": "metro"
    },
    {
      "id": "sevilla",
      "name": "SEVILLA",
      "lat": 40.41805074812411,
      "lon": -3.699251138040337,
      "lines": [
        "2"
      ],
      "codigo_empresa": "0207",
      "id_estacion": "",
      "id_modal": "",
      "tipo": "metro"
    },
    {
      "id": "goya",
      "name": "GOYA",
      "lat": 40.4245483896706,
      "lon": -3.675910176185961,
      "lines": [
        "2"
      ],
      "codigo_empresa": "0203",
      "id_estacion": "",
      "id_modal": "",
      "tipo": "metro"
    },
    {
      "id": "principe_de_vergara",
      "name": "PRINCIPE DE VERGARA",
      "lat": 40.422944861760726,
      "lon": -3.680122681043693,
      "lines": [
        "2"
      ],
      "codigo_empresa": "0204",
      "id_estacion": "",
      "id_modal": "",
      "tipo": "metro"
    },
    {
      "id": "retiro",
      "name": "RETIRO",
      "lat": 40.42030671752325,
      "lon": -3.686244719177841,
      "lines": [
        "2"
      ],
      "codigo_empresa": "0205",
      "id_estacion": "",
      "id_modal": "",
      "tipo": "metro"
    },
    {
      "id": "banco_de_espa_a",
      "name": "BANCO DE ESPAÑA",
      "lat": 40.4192197861148,
      "lon": -3.6949651055813844,
      "lines": [
        "2"
      ],
      "codigo_empresa": "0206",
      "id_estacion": "",
      "id_modal": "",
      "tipo": "metro"
    },
    {
      "id": "santo_domingo",
      "name": "SANTO DOMINGO",
      "lat": 40.42131540813318,
      "lon": -3.707955276656987,
      "lines": [
        "2"
      ],
      "codigo_empresa": "0210",
      "id_estacion": "",
      "id_modal": "",
      "tipo": "metro"
    },
    {
      "id": "san_bernardo",
      "name": "SAN BERNARDO",
      "lat": 40.430012762660795,
      "lon": -3.7055699332510224,
      "lines": [
        "2"
      ],
      "codigo_empresa": "0212",
      "id_estacion": "",
      "id_modal": "",
      "tipo": "metro"
    },
    {
      "id": "manuel_becerra",
      "name": "MANUEL BECERRA",
      "lat": 40.42790417380744,
      "lon": -3.669258203049727,
      "lines": [
        "2"
      ],
      "codigo_empresa": "0202",
      "id_estacion": "",
      "id_modal": "",
      "tipo": "metro"
    },
    {
      "id": "cuatro_caminos",
      "name": "CUATRO CAMINOS",
      "lat": 40.446974274859556,
      "lon": -3.7039217350429934,
      "lines": [
        "2"
      ],
      "codigo_empresa": "0215",
      "id_estacion": "",
      "id_modal": "",
      "tipo": "metro"
    },
    {
      "id": "noviciado",
      "name": "NOVICIADO",
      "lat": 40.424842233578424,
      "lon": -3.7074190426136306,
      "lines": [
        "2"
      ],
      "codigo_empresa": "0211",
      "id_estacion": "",
      "id_modal": "",
      "tipo": "metro"
    },
    {
      "id": "sol",
      "name": "SOL",
      "lat": 40.4168474580948,
      "lon": -3.7032613507552123,
      "lines": [
        "2"
      ],
      "codigo_empresa": "0208",
      "id_estacion": "",
      "id_modal": "",
      "tipo": "metro"
    },
    {
      "id": "alsacia",
      "name": "ALSACIA",
      "lat": 40.41829269464442,
      "lon": -3.6235060015486664,
      "lines": [
        "2"
      ],
      "codigo_empresa": "0253",
      "id_estacion": "",
      "id_modal": "",
      "tipo": "metro"
    },
    {
      "id": "la_almudena",
      "name": "LA ALMUDENA",
      "lat": 40.42361329068056,
      "lon": -3.6391423303625725,
      "lines": [
        "2"
      ],
      "codigo_empresa": "0252",
      "id_estacion": "",
      "id_modal": "",
      "tipo": "metro"
    },
    {
      "id": "canal",
      "name": "CANAL",
      "lat": 40.43841299799997,
      "lon": -3.704334573354305,
      "lines": [
        "2"
      ],
      "codigo_empresa": "0214",
      "id_estacion": "",
      "id_modal": "",
      "tipo": "metro"
    },
    {
      "id": "quevedo",
      "name": "QUEVEDO",
      "lat": 40.433217315157556,
      "lon": -3.704332861250257,
      "lines": [
        "2"
      ],
      "codigo_empresa": "0213",
      "id_estacion": "",
      "id_modal": "",
      "tipo": "metro"
    },
    {
      "id": "la_elipa",
      "name": "LA ELIPA",
      "lat": 40.426617234977186,
      "lon": -3.6505189139028626,
      "lines": [
        "2"
      ],
      "codigo_empresa": "0251",
      "id_estacion": "",
      "id_modal": "",
      "tipo": "metro"
    },
    {
      "id": "avenida_de_guadalajara",
      "name": "AVENIDA DE GUADALAJARA",
      "lat": 40.42239358382272,
      "lon": -3.6120646096811457,
      "lines": [
        "2"
      ],
      "codigo_empresa": "0254",
      "id_estacion": "",
      "id_modal": "",
      "tipo": "metro"
    },
    {
      "id": "las_rosas",
      "name": "LAS ROSAS",
      "lat": 40.42374843104424,
      "lon": -3.6033055955674373,
      "lines": [
        "2"
      ],
      "codigo_empresa": "0255",
      "id_estacion": "",
      "id_modal": "",
      "tipo": "metro"
    },
    {
      "id": "ventas",
      "name": "VENTAS",
      "lat": 40.430884498813434,
      "lon": -3.6636588664575465,
      "lines": [
        "2"
      ],
      "codigo_empresa": "0201",
      "id_estacion": "",
      "id_modal": "",
      "tipo": "metro"
    },
    {
      "id": "opera",
      "name": "OPERA",
      "lat": 40.418092919493105,
      "lon": -3.7094186087196794,
      "lines": [
        "2"
      ],
      "codigo_empresa": "0209",
      "id_estacion": "",
      "id_modal": "",
      "tipo": "metro"
    },
    {
      "id": "sevilla",
      "name": "SEVILLA",
      "lat": 40.41805074812411,
      "lon": -3.699251138040337,
      "lines": [
        "2"
      ],
      "codigo_empresa": "0207",
      "id_estacion": "",
      "id_modal": "",
      "tipo": "metro"
    },
    {
      "id": "goya",
      "name": "GOYA",
      "lat": 40.4245483896706,
      "lon": -3.675910176185961,
      "lines": [
        "2"
      ],
      "codigo_empresa": "0203",
      "id_estacion": "",
      "id_modal": "",
      "tipo": "metro"
    },
    {
      "id": "principe_de_vergara",
      "name": "PRINCIPE DE VERGARA",
      "lat": 40.422944861760726,
      "lon": -3.680122681043693,
      "lines": [
        "2"
      ],
      "codigo_empresa": "0204",
      "id_estacion": "",
      "id_modal": "",
      "tipo": "metro"
    },
    {
      "id": "retiro",
      "name": "RETIRO",
      "lat": 40.42030671752325,
      "lon": -3.686244719177841,
      "lines": [
        "2"
      ],
      "codigo_empresa": "0205",
      "id_estacion": "",
      "id_modal": "",
      "tipo": "metro"
    },
    {
      "id": "banco_de_espa_a",
      "name": "BANCO DE ESPAÑA",
      "lat": 40.4192197861148,
      "lon": -3.6949651055813844,
      "lines": [
        "2"
      ],
      "codigo_empresa": "0206",
      "id_estacion": "",
      "id_modal": "",
      "tipo": "metro"
    },
    {
      "id": "santo_domingo",
      "name": "SANTO DOMINGO",
      "lat": 40.42131540813318,
      "lon": -3.707955276656987,
      "lines": [
        "2"
      ],
      "codigo_empresa": "0210",
      "id_estacion": "",
      "id_modal": "",
      "tipo": "metro"
    },
    {
      "id": "san_bernardo",
      "name": "SAN BERNARDO",
      "lat": 40.430012762660795,
      "lon": -3.7055699332510224,
      "lines": [
        "2"
      ],
      "codigo_empresa": "0212",
      "id_estacion": "",
      "id_modal": "",
      "tipo": "metro"
    },
    {
      "id": "arg_elles",
      "name": "ARGÜELLES",
      "lat": 40.43066093022461,
      "lon": -3.715962651094834,
      "lines": [
        "3"
      ],
      "codigo_empresa": "0310",
      "id_estacion": "",
      "id_modal": "",
      "tipo": "metro"
    },
    {
      "id": "callao",
      "name": "CALLAO",
      "lat": 40.420136495085096,
      "lon": -3.7056612368434116,
      "lines": [
        "3"
      ],
      "codigo_empresa": "0307",
      "id_estacion": "",
      "id_modal": "",
      "tipo": "metro"
    },
    {
      "id": "villaverde_alto",
      "name": "VILLAVERDE ALTO",
      "lat": 40.34122865689154,
      "lon": -3.7119902708686725,
      "lines": [
        "3"
      ],
      "codigo_empresa": "0357",
      "id_estacion": "",
      "id_modal": "",
      "tipo": "metro"
    },
    {
      "id": "sol",
      "name": "SOL",
      "lat": 40.41681647165373,
      "lon": -3.7032610281165037,
      "lines": [
        "3"
      ],
      "codigo_empresa": "0306",
      "id_estacion": "",
      "id_modal": "",
      "tipo": "metro"
    },
    {
      "id": "hospital_12_de_octubre",
      "name": "HOSPITAL 12 DE OCTUBRE",
      "lat": 40.375031361291015,
      "lon": -3.6958546924445588,
      "lines": [
        "3"
      ],
      "codigo_empresa": "0352",
      "id_estacion": "",
      "id_modal": "",
      "tipo": "metro"
    },
    {
      "id": "almendrales",
      "name": "ALMENDRALES",
      "lat": 40.38409352717396,
      "lon": -3.697881397655217,
      "lines": [
        "3"
      ],
      "codigo_empresa": "0351",
      "id_estacion": "",
      "id_modal": "",
      "tipo": "metro"
    },
    {
      "id": "lavapies",
      "name": "LAVAPIES",
      "lat": 40.40851094285593,
      "lon": -3.7009041232004773,
      "lines": [
        "3"
      ],
      "codigo_empresa": "0305",
      "id_estacion": "",
      "id_modal": "",
      "tipo": "metro"
    },
    {
      "id": "san_fermin_orcasur",
      "name": "SAN FERMIN-ORCASUR",
      "lat": 40.36999093055091,
      "lon": -3.6941764145036964,
      "lines": [
        "3"
      ],
      "codigo_empresa": "0353",
      "id_estacion": "",
      "id_modal": "",
      "tipo": "metro"
    },
    {
      "id": "legazpi",
      "name": "LEGAZPI",
      "lat": 40.391154999510235,
      "lon": -3.695113687596018,
      "lines": [
        "3"
      ],
      "codigo_empresa": "0301",
      "id_estacion": "",
      "id_modal": "",
      "tipo": "metro"
    },
    {
      "id": "palos_de_la_frontera",
      "name": "PALOS DE LA FRONTERA",
      "lat": 40.40307228397831,
      "lon": -3.6942326840798296,
      "lines": [
        "3"
      ],
      "codigo_empresa": "0303",
      "id_estacion": "",
      "id_modal": "",
      "tipo": "metro"
    },
    {
      "id": "delicias",
      "name": "DELICIAS",
      "lat": 40.39990477855439,
      "lon": -3.694199616036338,
      "lines": [
        "3"
      ],
      "codigo_empresa": "0302",
      "id_estacion": "",
      "id_modal": "",
      "tipo": "metro"
    },
    {
      "id": "ciudad_de_los_angeles",
      "name": "CIUDAD DE LOS ANGELES",
      "lat": 40.359585428137,
      "lon": -3.6936264441706634,
      "lines": [
        "3"
      ],
      "codigo_empresa": "0354",
      "id_estacion": "",
      "id_modal": "",
      "tipo": "metro"
    },
    {
      "id": "san_cristobal",
      "name": "SAN CRISTOBAL",
      "lat": 40.34154193600964,
      "lon": -3.6931802991863165,
      "lines": [
        "3"
      ],
      "codigo_empresa": "0356",
      "id_estacion": "",
      "id_modal": "",
      "tipo": "metro"
    },
    {
      "id": "plaza_de_espa_a",
      "name": "PLAZA DE ESPAÑA",
      "lat": 40.42341602795806,
      "lon": -3.711197037580092,
      "lines": [
        "3"
      ],
      "codigo_empresa": "0308",
      "id_estacion": "",
      "id_modal": "",
      "tipo": "metro"
    },
    {
      "id": "ventura_rodriguez",
      "name": "VENTURA RODRIGUEZ",
      "lat": 40.42708736443108,
      "lon": -3.713413096705454,
      "lines": [
        "3"
      ],
      "codigo_empresa": "0309",
      "id_estacion": "",
      "id_modal": "",
      "tipo": "metro"
    },
    {
      "id": "embajadores",
      "name": "EMBAJADORES",
      "lat": 40.405127271162534,
      "lon": -3.70268049977228,
      "lines": [
        "3"
      ],
      "codigo_empresa": "0304",
      "id_estacion": "",
      "id_modal": "",
      "tipo": "metro"
    },
    {
      "id": "moncloa",
      "name": "MONCLOA",
      "lat": 40.43502351519558,
      "lon": -3.719450619240696,
      "lines": [
        "3"
      ],
      "codigo_empresa": "0311",
      "id_estacion": "",
      "id_modal": "",
      "tipo": "metro"
    },
    {
      "id": "villaverde_bajo_cruce",
      "name": "VILLAVERDE BAJO CRUCE",
      "lat": 40.35089476396152,
      "lon": -3.6926489418134363,
      "lines": [
        "3"
      ],
      "codigo_empresa": "0355",
      "id_estacion": "",
      "id_modal": "",
      "tipo": "metro"
    },
    {
      "id": "arg_elles",
      "name": "ARGÜELLES",
      "lat": 40.43066093022461,
      "lon": -3.715962651094834,
      "lines": [
        "3"
      ],
      "codigo_empresa": "0310",
      "id_estacion": "",
      "id_modal": "",
      "tipo": "metro"
    },
    {
      "id": "callao",
      "name": "CALLAO",
      "lat": 40.420136495085096,
      "lon": -3.7056612368434116,
      "lines": [
        "3"
      ],
      "codigo_empresa": "0307",
      "id_estacion": "",
      "id_modal": "",
      "tipo": "metro"
    },
    {
      "id": "villaverde_alto",
      "name": "VILLAVERDE ALTO",
      "lat": 40.34122865689154,
      "lon": -3.7119902708686725,
      "lines": [
        "3"
      ],
      "codigo_empresa": "0357",
      "id_estacion": "",
      "id_modal": "",
      "tipo": "metro"
    },
    {
      "id": "sol",
      "name": "SOL",
      "lat": 40.41681647165373,
      "lon": -3.7032610281165037,
      "lines": [
        "3"
      ],
      "codigo_empresa": "0306",
      "id_estacion": "",
      "id_modal": "",
      "tipo": "metro"
    },
    {
      "id": "hospital_12_de_octubre",
      "name": "HOSPITAL 12 DE OCTUBRE",
      "lat": 40.375031361291015,
      "lon": -3.6958546924445588,
      "lines": [
        "3"
      ],
      "codigo_empresa": "0352",
      "id_estacion": "",
      "id_modal": "",
      "tipo": "metro"
    },
    {
      "id": "almendrales",
      "name": "ALMENDRALES",
      "lat": 40.38409352717396,
      "lon": -3.697881397655217,
      "lines": [
        "3"
      ],
      "codigo_empresa": "0351",
      "id_estacion": "",
      "id_modal": "",
      "tipo": "metro"
    },
    {
      "id": "lavapies",
      "name": "LAVAPIES",
      "lat": 40.40851094285593,
      "lon": -3.7009041232004773,
      "lines": [
        "3"
      ],
      "codigo_empresa": "0305",
      "id_estacion": "",
      "id_modal": "",
      "tipo": "metro"
    },
    {
      "id": "san_fermin_orcasur",
      "name": "SAN FERMIN-ORCASUR",
      "lat": 40.36999093055091,
      "lon": -3.6941764145036964,
      "lines": [
        "3"
      ],
      "codigo_empresa": "0353",
      "id_estacion": "",
      "id_modal": "",
      "tipo": "metro"
    },
    {
      "id": "legazpi",
      "name": "LEGAZPI",
      "lat": 40.391154999510235,
      "lon": -3.695113687596018,
      "lines": [
        "3"
      ],
      "codigo_empresa": "0301",
      "id_estacion": "",
      "id_modal": "",
      "tipo": "metro"
    },
    {
      "id": "palos_de_la_frontera",
      "name": "PALOS DE LA FRONTERA",
      "lat": 40.40307228397831,
      "lon": -3.6942326840798296,
      "lines": [
        "3"
      ],
      "codigo_empresa": "0303",
      "id_estacion": "",
      "id_modal": "",
      "tipo": "metro"
    },
    {
      "id": "delicias",
      "name": "DELICIAS",
      "lat": 40.39990477855439,
      "lon": -3.694199616036338,
      "lines": [
        "3"
      ],
      "codigo_empresa": "0302",
      "id_estacion": "",
      "id_modal": "",
      "tipo": "metro"
    },
    {
      "id": "ciudad_de_los_angeles",
      "name": "CIUDAD DE LOS ANGELES",
      "lat": 40.359585428137,
      "lon": -3.6936264441706634,
      "lines": [
        "3"
      ],
      "codigo_empresa": "0354",
      "id_estacion": "",
      "id_modal": "",
      "tipo": "metro"
    },
    {
      "id": "san_cristobal",
      "name": "SAN CRISTOBAL",
      "lat": 40.34154193600964,
      "lon": -3.6931802991863165,
      "lines": [
        "3"
      ],
      "codigo_empresa": "0356",
      "id_estacion": "",
      "id_modal": "",
      "tipo": "metro"
    },
    {
      "id": "plaza_de_espa_a",
      "name": "PLAZA DE ESPAÑA",
      "lat": 40.42341602795806,
      "lon": -3.711197037580092,
      "lines": [
        "3"
      ],
      "codigo_empresa": "0308",
      "id_estacion": "",
      "id_modal": "",
      "tipo": "metro"
    },
    {
      "id": "ventura_rodriguez",
      "name": "VENTURA RODRIGUEZ",
      "lat": 40.42708736443108,
      "lon": -3.713413096705454,
      "lines": [
        "3"
      ],
      "codigo_empresa": "0309",
      "id_estacion": "",
      "id_modal": "",
      "tipo": "metro"
    },
    {
      "id": "embajadores",
      "name": "EMBAJADORES",
      "lat": 40.405127271162534,
      "lon": -3.70268049977228,
      "lines": [
        "3"
      ],
      "codigo_empresa": "0304",
      "id_estacion": "",
      "id_modal": "",
      "tipo": "metro"
    },
    {
      "id": "moncloa",
      "name": "MONCLOA",
      "lat": 40.43502351519558,
      "lon": -3.719450619240696,
      "lines": [
        "3"
      ],
      "codigo_empresa": "0311",
      "id_estacion": "",
      "id_modal": "",
      "tipo": "metro"
    },
    {
      "id": "villaverde_bajo_cruce",
      "name": "VILLAVERDE BAJO CRUCE",
      "lat": 40.35089476396152,
      "lon": -3.6926489418134363,
      "lines": [
        "3"
      ],
      "codigo_empresa": "0355",
      "id_estacion": "",
      "id_modal": "",
      "tipo": "metro"
    },
    {
      "id": "arg_elles",
      "name": "ARGÜELLES",
      "lat": 40.430598358763966,
      "lon": -3.7159568697272873,
      "lines": [
        "4"
      ],
      "codigo_empresa": "0401",
      "id_estacion": "",
      "id_modal": "",
      "tipo": "metro"
    },
    {
      "id": "hortaleza",
      "name": "HORTALEZA",
      "lat": 40.47537171795902,
      "lon": -3.6525726113410113,
      "lines": [
        "4"
      ],
      "codigo_empresa": "0421",
      "id_estacion": "",
      "id_modal": "",
      "tipo": "metro"
    },
    {
      "id": "avenida_de_america",
      "name": "AVENIDA DE AMERICA",
      "lat": 40.43803257738159,
      "lon": -3.6766395553262643,
      "lines": [
        "4"
      ],
      "codigo_empresa": "0411",
      "id_estacion": "",
      "id_modal": "",
      "tipo": "metro"
    },
    {
      "id": "lista",
      "name": "LISTA",
      "lat": 40.429168520255786,
      "lon": -3.675409822278686,
      "lines": [
        "4"
      ],
      "codigo_empresa": "0409",
      "id_estacion": "",
      "id_modal": "",
      "tipo": "metro"
    },
    {
      "id": "pinar_de_chamartin",
      "name": "PINAR DE CHAMARTIN",
      "lat": 40.48013848447957,
      "lon": -3.6667610675346913,
      "lines": [
        "4"
      ],
      "codigo_empresa": "0423",
      "id_estacion": "",
      "id_modal": "",
      "tipo": "metro"
    },
    {
      "id": "manoteras",
      "name": "MANOTERAS",
      "lat": 40.476874226693596,
      "lon": -3.6628954758911214,
      "lines": [
        "4"
      ],
      "codigo_empresa": "0422",
      "id_estacion": "",
      "id_modal": "",
      "tipo": "metro"
    },
    {
      "id": "serrano",
      "name": "SERRANO",
      "lat": 40.42543215941902,
      "lon": -3.6866304363833353,
      "lines": [
        "4"
      ],
      "codigo_empresa": "0406",
      "id_estacion": "",
      "id_modal": "",
      "tipo": "metro"
    },
    {
      "id": "velazquez",
      "name": "VELAZQUEZ",
      "lat": 40.425032550864806,
      "lon": -3.6829181480861983,
      "lines": [
        "4"
      ],
      "codigo_empresa": "0407",
      "id_estacion": "",
      "id_modal": "",
      "tipo": "metro"
    },
    {
      "id": "diego_de_leon",
      "name": "DIEGO DE LEON",
      "lat": 40.43467946439266,
      "lon": -3.6749527300771714,
      "lines": [
        "4"
      ],
      "codigo_empresa": "0410",
      "id_estacion": "",
      "id_modal": "",
      "tipo": "metro"
    },
    {
      "id": "prosperidad",
      "name": "PROSPERIDAD",
      "lat": 40.444188974144545,
      "lon": -3.674818902992059,
      "lines": [
        "4"
      ],
      "codigo_empresa": "0412",
      "id_estacion": "",
      "id_modal": "",
      "tipo": "metro"
    },
    {
      "id": "alfonso_xiii",
      "name": "ALFONSO XIII",
      "lat": 40.44824838816102,
      "lon": -3.6679061529956103,
      "lines": [
        "4"
      ],
      "codigo_empresa": "0413",
      "id_estacion": "",
      "id_modal": "",
      "tipo": "metro"
    },
    {
      "id": "avenida_de_la_paz",
      "name": "AVENIDA DE LA PAZ",
      "lat": 40.453542634899286,
      "lon": -3.6611819996826074,
      "lines": [
        "4"
      ],
      "codigo_empresa": "0414",
      "id_estacion": "",
      "id_modal": "",
      "tipo": "metro"
    },
    {
      "id": "arturo_soria",
      "name": "ARTURO SORIA",
      "lat": 40.4558324918715,
      "lon": -3.656181218097823,
      "lines": [
        "4"
      ],
      "codigo_empresa": "0415",
      "id_estacion": "",
      "id_modal": "",
      "tipo": "metro"
    },
    {
      "id": "esperanza",
      "name": "ESPERANZA",
      "lat": 40.45944729719177,
      "lon": -3.645817180039627,
      "lines": [
        "4"
      ],
      "codigo_empresa": "0416",
      "id_estacion": "",
      "id_modal": "",
      "tipo": "metro"
    },
    {
      "id": "canillas",
      "name": "CANILLAS",
      "lat": 40.463810536980176,
      "lon": -3.6355954639810872,
      "lines": [
        "4"
      ],
      "codigo_empresa": "0417",
      "id_estacion": "",
      "id_modal": "",
      "tipo": "metro"
    },
    {
      "id": "mar_de_cristal",
      "name": "MAR DE CRISTAL",
      "lat": 40.46942603388481,
      "lon": -3.638322673402993,
      "lines": [
        "4"
      ],
      "codigo_empresa": "0418",
      "id_estacion": "",
      "id_modal": "",
      "tipo": "metro"
    },
    {
      "id": "san_lorenzo",
      "name": "SAN LORENZO",
      "lat": 40.47447073958695,
      "lon": -3.639577276564596,
      "lines": [
        "4"
      ],
      "codigo_empresa": "0419",
      "id_estacion": "",
      "id_modal": "",
      "tipo": "metro"
    },
    {
      "id": "parque_de_santa_maria",
      "name": "PARQUE DE SANTA MARIA",
      "lat": 40.47711429389674,
      "lon": -3.6452420021656278,
      "lines": [
        "4"
      ],
      "codigo_empresa": "0420",
      "id_estacion": "",
      "id_modal": "",
      "tipo": "metro"
    },
    {
      "id": "alonso_martinez",
      "name": "ALONSO MARTINEZ",
      "lat": 40.42772011333865,
      "lon": -3.6959386952332616,
      "lines": [
        "4"
      ],
      "codigo_empresa": "0404",
      "id_estacion": "",
      "id_modal": "",
      "tipo": "metro"
    },
    {
      "id": "colon",
      "name": "COLON",
      "lat": 40.42541918213737,
      "lon": -3.6910073925714295,
      "lines": [
        "4"
      ],
      "codigo_empresa": "0405",
      "id_estacion": "",
      "id_modal": "",
      "tipo": "metro"
    },
    {
      "id": "san_bernardo",
      "name": "SAN BERNARDO",
      "lat": 40.429662461610036,
      "lon": -3.705673788588775,
      "lines": [
        "4"
      ],
      "codigo_empresa": "0402",
      "id_estacion": "",
      "id_modal": "",
      "tipo": "metro"
    },
    {
      "id": "bilbao",
      "name": "BILBAO",
      "lat": 40.42885030444197,
      "lon": -3.7011381755651382,
      "lines": [
        "4"
      ],
      "codigo_empresa": "0403",
      "id_estacion": "",
      "id_modal": "",
      "tipo": "metro"
    },
    {
      "id": "goya",
      "name": "GOYA",
      "lat": 40.424805404817974,
      "lon": -3.6768461429074466,
      "lines": [
        "4"
      ],
      "codigo_empresa": "0408",
      "id_estacion": "",
      "id_modal": "",
      "tipo": "metro"
    },
    {
      "id": "arg_elles",
      "name": "ARGÜELLES",
      "lat": 40.430598358763966,
      "lon": -3.7159568697272873,
      "lines": [
        "4"
      ],
      "codigo_empresa": "0401",
      "id_estacion": "",
      "id_modal": "",
      "tipo": "metro"
    },
    {
      "id": "hortaleza",
      "name": "HORTALEZA",
      "lat": 40.47537171795902,
      "lon": -3.6525726113410113,
      "lines": [
        "4"
      ],
      "codigo_empresa": "0421",
      "id_estacion": "",
      "id_modal": "",
      "tipo": "metro"
    },
    {
      "id": "avenida_de_america",
      "name": "AVENIDA DE AMERICA",
      "lat": 40.43803257738159,
      "lon": -3.6766395553262643,
      "lines": [
        "4"
      ],
      "codigo_empresa": "0411",
      "id_estacion": "",
      "id_modal": "",
      "tipo": "metro"
    },
    {
      "id": "lista",
      "name": "LISTA",
      "lat": 40.429168520255786,
      "lon": -3.675409822278686,
      "lines": [
        "4"
      ],
      "codigo_empresa": "0409",
      "id_estacion": "",
      "id_modal": "",
      "tipo": "metro"
    },
    {
      "id": "pinar_de_chamartin",
      "name": "PINAR DE CHAMARTIN",
      "lat": 40.48013848447957,
      "lon": -3.6667610675346913,
      "lines": [
        "4"
      ],
      "codigo_empresa": "0423",
      "id_estacion": "",
      "id_modal": "",
      "tipo": "metro"
    },
    {
      "id": "manoteras",
      "name": "MANOTERAS",
      "lat": 40.476874226693596,
      "lon": -3.6628954758911214,
      "lines": [
        "4"
      ],
      "codigo_empresa": "0422",
      "id_estacion": "",
      "id_modal": "",
      "tipo": "metro"
    },
    {
      "id": "serrano",
      "name": "SERRANO",
      "lat": 40.42543215941902,
      "lon": -3.6866304363833353,
      "lines": [
        "4"
      ],
      "codigo_empresa": "0406",
      "id_estacion": "",
      "id_modal": "",
      "tipo": "metro"
    },
    {
      "id": "velazquez",
      "name": "VELAZQUEZ",
      "lat": 40.425032550864806,
      "lon": -3.6829181480861983,
      "lines": [
        "4"
      ],
      "codigo_empresa": "0407",
      "id_estacion": "",
      "id_modal": "",
      "tipo": "metro"
    },
    {
      "id": "diego_de_leon",
      "name": "DIEGO DE LEON",
      "lat": 40.43467946439266,
      "lon": -3.6749527300771714,
      "lines": [
        "4"
      ],
      "codigo_empresa": "0410",
      "id_estacion": "",
      "id_modal": "",
      "tipo": "metro"
    },
    {
      "id": "prosperidad",
      "name": "PROSPERIDAD",
      "lat": 40.444188974144545,
      "lon": -3.674818902992059,
      "lines": [
        "4"
      ],
      "codigo_empresa": "0412",
      "id_estacion": "",
      "id_modal": "",
      "tipo": "metro"
    },
    {
      "id": "alfonso_xiii",
      "name": "ALFONSO XIII",
      "lat": 40.44824838816102,
      "lon": -3.6679061529956103,
      "lines": [
        "4"
      ],
      "codigo_empresa": "0413",
      "id_estacion": "",
      "id_modal": "",
      "tipo": "metro"
    },
    {
      "id": "avenida_de_la_paz",
      "name": "AVENIDA DE LA PAZ",
      "lat": 40.453542634899286,
      "lon": -3.6611819996826074,
      "lines": [
        "4"
      ],
      "codigo_empresa": "0414",
      "id_estacion": "",
      "id_modal": "",
      "tipo": "metro"
    },
    {
      "id": "arturo_soria",
      "name": "ARTURO SORIA",
      "lat": 40.4558324918715,
      "lon": -3.656181218097823,
      "lines": [
        "4"
      ],
      "codigo_empresa": "0415",
      "id_estacion": "",
      "id_modal": "",
      "tipo": "metro"
    },
    {
      "id": "esperanza",
      "name": "ESPERANZA",
      "lat": 40.45944729719177,
      "lon": -3.645817180039627,
      "lines": [
        "4"
      ],
      "codigo_empresa": "0416",
      "id_estacion": "",
      "id_modal": "",
      "tipo": "metro"
    },
    {
      "id": "canillas",
      "name": "CANILLAS",
      "lat": 40.463810536980176,
      "lon": -3.6355954639810872,
      "lines": [
        "4"
      ],
      "codigo_empresa": "0417",
      "id_estacion": "",
      "id_modal": "",
      "tipo": "metro"
    },
    {
      "id": "mar_de_cristal",
      "name": "MAR DE CRISTAL",
      "lat": 40.46942603388481,
      "lon": -3.638322673402993,
      "lines": [
        "4"
      ],
      "codigo_empresa": "0418",
      "id_estacion": "",
      "id_modal": "",
      "tipo": "metro"
    },
    {
      "id": "san_lorenzo",
      "name": "SAN LORENZO",
      "lat": 40.47447073958695,
      "lon": -3.639577276564596,
      "lines": [
        "4"
      ],
      "codigo_empresa": "0419",
      "id_estacion": "",
      "id_modal": "",
      "tipo": "metro"
    },
    {
      "id": "parque_de_santa_maria",
      "name": "PARQUE DE SANTA MARIA",
      "lat": 40.47711429389674,
      "lon": -3.6452420021656278,
      "lines": [
        "4"
      ],
      "codigo_empresa": "0420",
      "id_estacion": "",
      "id_modal": "",
      "tipo": "metro"
    },
    {
      "id": "alonso_martinez",
      "name": "ALONSO MARTINEZ",
      "lat": 40.42772011333865,
      "lon": -3.6959386952332616,
      "lines": [
        "4"
      ],
      "codigo_empresa": "0404",
      "id_estacion": "",
      "id_modal": "",
      "tipo": "metro"
    },
    {
      "id": "colon",
      "name": "COLON",
      "lat": 40.42541918213737,
      "lon": -3.6910073925714295,
      "lines": [
        "4"
      ],
      "codigo_empresa": "0405",
      "id_estacion": "",
      "id_modal": "",
      "tipo": "metro"
    },
    {
      "id": "san_bernardo",
      "name": "SAN BERNARDO",
      "lat": 40.429662461610036,
      "lon": -3.705673788588775,
      "lines": [
        "4"
      ],
      "codigo_empresa": "0402",
      "id_estacion": "",
      "id_modal": "",
      "tipo": "metro"
    },
    {
      "id": "bilbao",
      "name": "BILBAO",
      "lat": 40.42885030444197,
      "lon": -3.7011381755651382,
      "lines": [
        "4"
      ],
      "codigo_empresa": "0403",
      "id_estacion": "",
      "id_modal": "",
      "tipo": "metro"
    },
    {
      "id": "goya",
      "name": "GOYA",
      "lat": 40.424805404817974,
      "lon": -3.6768461429074466,
      "lines": [
        "4"
      ],
      "codigo_empresa": "0408",
      "id_estacion": "",
      "id_modal": "",
      "tipo": "metro"
    },
    {
      "id": "callao",
      "name": "CALLAO",
      "lat": 40.42008325439652,
      "lon": -3.705664776700521,
      "lines": [
        "5"
      ],
      "codigo_empresa": "0515",
      "id_estacion": "",
      "id_modal": "",
      "tipo": "metro"
    },
    {
      "id": "opera",
      "name": "OPERA",
      "lat": 40.41809334199409,
      "lon": -3.7093496027052257,
      "lines": [
        "5"
      ],
      "codigo_empresa": "0516",
      "id_estacion": "",
      "id_modal": "",
      "tipo": "metro"
    },
    {
      "id": "chueca",
      "name": "CHUECA",
      "lat": 40.422933178079816,
      "lon": -3.6976165924437825,
      "lines": [
        "5"
      ],
      "codigo_empresa": "0513",
      "id_estacion": "",
      "id_modal": "",
      "tipo": "metro"
    },
    {
      "id": "campamento",
      "name": "CAMPAMENTO",
      "lat": 40.39480775740209,
      "lon": -3.768128136787409,
      "lines": [
        "5"
      ],
      "codigo_empresa": "0529",
      "id_estacion": "",
      "id_modal": "",
      "tipo": "metro"
    },
    {
      "id": "empalme",
      "name": "EMPALME",
      "lat": 40.39057255783158,
      "lon": -3.765347875572339,
      "lines": [
        "5"
      ],
      "codigo_empresa": "0528",
      "id_estacion": "",
      "id_modal": "",
      "tipo": "metro"
    },
    {
      "id": "alameda_de_osuna",
      "name": "ALAMEDA DE OSUNA",
      "lat": 40.45778862852046,
      "lon": -3.5875209290434937,
      "lines": [
        "5"
      ],
      "codigo_empresa": "0552",
      "id_estacion": "",
      "id_modal": "",
      "tipo": "metro"
    },
    {
      "id": "aluche",
      "name": "ALUCHE",
      "lat": 40.38562861956385,
      "lon": -3.76080381070444,
      "lines": [
        "5"
      ],
      "codigo_empresa": "0527",
      "id_estacion": "",
      "id_modal": "",
      "tipo": "metro"
    },
    {
      "id": "acacias",
      "name": "ACACIAS",
      "lat": 40.40387164372991,
      "lon": -3.7066410860751864,
      "lines": [
        "5"
      ],
      "codigo_empresa": "0519",
      "id_estacion": "",
      "id_modal": "",
      "tipo": "metro"
    },
    {
      "id": "oporto",
      "name": "OPORTO",
      "lat": 40.38846476309323,
      "lon": -3.7313233124150336,
      "lines": [
        "5"
      ],
      "codigo_empresa": "0523",
      "id_estacion": "",
      "id_modal": "",
      "tipo": "metro"
    },
    {
      "id": "canillejas",
      "name": "CANILLEJAS",
      "lat": 40.449420844365704,
      "lon": -3.608160323120323,
      "lines": [
        "5"
      ],
      "codigo_empresa": "0501",
      "id_estacion": "",
      "id_modal": "",
      "tipo": "metro"
    },
    {
      "id": "torre_arias",
      "name": "TORRE ARIAS",
      "lat": 40.443743296414574,
      "lon": -3.616994705938824,
      "lines": [
        "5"
      ],
      "codigo_empresa": "0502",
      "id_estacion": "",
      "id_modal": "",
      "tipo": "metro"
    },
    {
      "id": "suanzes",
      "name": "SUANZES",
      "lat": 40.44085124307767,
      "lon": -3.6268397441771407,
      "lines": [
        "5"
      ],
      "codigo_empresa": "0503",
      "id_estacion": "",
      "id_modal": "",
      "tipo": "metro"
    },
    {
      "id": "ciudad_lineal",
      "name": "CIUDAD LINEAL",
      "lat": 40.4380484084201,
      "lon": -3.638157588345499,
      "lines": [
        "5"
      ],
      "codigo_empresa": "0504",
      "id_estacion": "",
      "id_modal": "",
      "tipo": "metro"
    },
    {
      "id": "quintana",
      "name": "QUINTANA",
      "lat": 40.43358494164949,
      "lon": -3.6473622420983225,
      "lines": [
        "5"
      ],
      "codigo_empresa": "0506",
      "id_estacion": "",
      "id_modal": "",
      "tipo": "metro"
    },
    {
      "id": "el_carmen",
      "name": "EL CARMEN",
      "lat": 40.43189329209465,
      "lon": -3.6575725472596625,
      "lines": [
        "5"
      ],
      "codigo_empresa": "0507",
      "id_estacion": "",
      "id_modal": "",
      "tipo": "metro"
    },
    {
      "id": "nu_ez_de_balboa",
      "name": "NUÑEZ DE BALBOA",
      "lat": 40.43278060804376,
      "lon": -3.6825799144836044,
      "lines": [
        "5"
      ],
      "codigo_empresa": "0510",
      "id_estacion": "",
      "id_modal": "",
      "tipo": "metro"
    },
    {
      "id": "ruben_dario",
      "name": "RUBEN DARIO",
      "lat": 40.43315793720963,
      "lon": -3.689541598575491,
      "lines": [
        "5"
      ],
      "codigo_empresa": "0511",
      "id_estacion": "",
      "id_modal": "",
      "tipo": "metro"
    },
    {
      "id": "la_latina",
      "name": "LA LATINA",
      "lat": 40.41128032868688,
      "lon": -3.708160868519015,
      "lines": [
        "5"
      ],
      "codigo_empresa": "0517",
      "id_estacion": "",
      "id_modal": "",
      "tipo": "metro"
    },
    {
      "id": "marques_de_vadillo",
      "name": "MARQUES DE VADILLO",
      "lat": 40.397356290324495,
      "lon": -3.7159600765140515,
      "lines": [
        "5"
      ],
      "codigo_empresa": "0521",
      "id_estacion": "",
      "id_modal": "",
      "tipo": "metro"
    },
    {
      "id": "urgel",
      "name": "URGEL",
      "lat": 40.39335176845625,
      "lon": -3.7236048242936626,
      "lines": [
        "5"
      ],
      "codigo_empresa": "0522",
      "id_estacion": "",
      "id_modal": "",
      "tipo": "metro"
    },
    {
      "id": "vista_alegre",
      "name": "VISTA ALEGRE",
      "lat": 40.38884702575721,
      "lon": -3.7398245500065785,
      "lines": [
        "5"
      ],
      "codigo_empresa": "0524",
      "id_estacion": "",
      "id_modal": "",
      "tipo": "metro"
    },
    {
      "id": "carabanchel",
      "name": "CARABANCHEL",
      "lat": 40.38782701996798,
      "lon": -3.744870521041383,
      "lines": [
        "5"
      ],
      "codigo_empresa": "0525",
      "id_estacion": "",
      "id_modal": "",
      "tipo": "metro"
    },
    {
      "id": "eugenia_de_montijo",
      "name": "EUGENIA DE MONTIJO",
      "lat": 40.38438579717573,
      "lon": -3.7512111847828216,
      "lines": [
        "5"
      ],
      "codigo_empresa": "0526",
      "id_estacion": "",
      "id_modal": "",
      "tipo": "metro"
    },
    {
      "id": "gran_via",
      "name": "GRAN VIA",
      "lat": 40.419986617735724,
      "lon": -3.701803930135661,
      "lines": [
        "5"
      ],
      "codigo_empresa": "0514",
      "id_estacion": "",
      "id_modal": "",
      "tipo": "metro"
    },
    {
      "id": "el_capricho",
      "name": "EL CAPRICHO",
      "lat": 40.453468332704944,
      "lon": -3.5940116576957872,
      "lines": [
        "5"
      ],
      "codigo_empresa": "0551",
      "id_estacion": "",
      "id_modal": "",
      "tipo": "metro"
    },
    {
      "id": "casa_de_campo",
      "name": "CASA DE CAMPO",
      "lat": 40.403242270835875,
      "lon": -3.761013667626499,
      "lines": [
        "5"
      ],
      "codigo_empresa": "0530",
      "id_estacion": "",
      "id_modal": "",
      "tipo": "metro"
    },
    {
      "id": "pueblo_nuevo",
      "name": "PUEBLO NUEVO",
      "lat": 40.43569283899227,
      "lon": -3.64282326413925,
      "lines": [
        "5"
      ],
      "codigo_empresa": "0505",
      "id_estacion": "",
      "id_modal": "",
      "tipo": "metro"
    },
    {
      "id": "alonso_martinez",
      "name": "ALONSO MARTINEZ",
      "lat": 40.42828258137045,
      "lon": -3.6950229019466976,
      "lines": [
        "5"
      ],
      "codigo_empresa": "0512",
      "id_estacion": "",
      "id_modal": "",
      "tipo": "metro"
    },
    {
      "id": "diego_de_leon",
      "name": "DIEGO DE LEON",
      "lat": 40.43235319427283,
      "lon": -3.674261712530584,
      "lines": [
        "5"
      ],
      "codigo_empresa": "0509",
      "id_estacion": "",
      "id_modal": "",
      "tipo": "metro"
    },
    {
      "id": "ventas",
      "name": "VENTAS",
      "lat": 40.430884803194914,
      "lon": -3.6636058417273496,
      "lines": [
        "5"
      ],
      "codigo_empresa": "0508",
      "id_estacion": "",
      "id_modal": "",
      "tipo": "metro"
    },
    {
      "id": "piramides",
      "name": "PIRAMIDES",
      "lat": 40.40259816545889,
      "lon": -3.7113771228123165,
      "lines": [
        "5"
      ],
      "codigo_empresa": "0520",
      "id_estacion": "",
      "id_modal": "",
      "tipo": "metro"
    },
    {
      "id": "puerta_de_toledo",
      "name": "PUERTA DE TOLEDO",
      "lat": 40.40703575446187,
      "lon": -3.711046450767629,
      "lines": [
        "5"
      ],
      "codigo_empresa": "0518",
      "id_estacion": "",
      "id_modal": "",
      "tipo": "metro"
    },
    {
      "id": "callao",
      "name": "CALLAO",
      "lat": 40.42008325439652,
      "lon": -3.705664776700521,
      "lines": [
        "5"
      ],
      "codigo_empresa": "0515",
      "id_estacion": "",
      "id_modal": "",
      "tipo": "metro"
    },
    {
      "id": "opera",
      "name": "OPERA",
      "lat": 40.41809334199409,
      "lon": -3.7093496027052257,
      "lines": [
        "5"
      ],
      "codigo_empresa": "0516",
      "id_estacion": "",
      "id_modal": "",
      "tipo": "metro"
    },
    {
      "id": "chueca",
      "name": "CHUECA",
      "lat": 40.422933178079816,
      "lon": -3.6976165924437825,
      "lines": [
        "5"
      ],
      "codigo_empresa": "0513",
      "id_estacion": "",
      "id_modal": "",
      "tipo": "metro"
    },
    {
      "id": "campamento",
      "name": "CAMPAMENTO",
      "lat": 40.39480775740209,
      "lon": -3.768128136787409,
      "lines": [
        "5"
      ],
      "codigo_empresa": "0529",
      "id_estacion": "",
      "id_modal": "",
      "tipo": "metro"
    },
    {
      "id": "empalme",
      "name": "EMPALME",
      "lat": 40.39057255783158,
      "lon": -3.765347875572339,
      "lines": [
        "5"
      ],
      "codigo_empresa": "0528",
      "id_estacion": "",
      "id_modal": "",
      "tipo": "metro"
    },
    {
      "id": "alameda_de_osuna",
      "name": "ALAMEDA DE OSUNA",
      "lat": 40.45778862852046,
      "lon": -3.5875209290434937,
      "lines": [
        "5"
      ],
      "codigo_empresa": "0552",
      "id_estacion": "",
      "id_modal": "",
      "tipo": "metro"
    },
    {
      "id": "aluche",
      "name": "ALUCHE",
      "lat": 40.38562861956385,
      "lon": -3.76080381070444,
      "lines": [
        "5"
      ],
      "codigo_empresa": "0527",
      "id_estacion": "",
      "id_modal": "",
      "tipo": "metro"
    },
    {
      "id": "acacias",
      "name": "ACACIAS",
      "lat": 40.40387164372991,
      "lon": -3.7066410860751864,
      "lines": [
        "5"
      ],
      "codigo_empresa": "0519",
      "id_estacion": "",
      "id_modal": "",
      "tipo": "metro"
    },
    {
      "id": "oporto",
      "name": "OPORTO",
      "lat": 40.38846476309323,
      "lon": -3.7313233124150336,
      "lines": [
        "5"
      ],
      "codigo_empresa": "0523",
      "id_estacion": "",
      "id_modal": "",
      "tipo": "metro"
    },
    {
      "id": "canillejas",
      "name": "CANILLEJAS",
      "lat": 40.449420844365704,
      "lon": -3.608160323120323,
      "lines": [
        "5"
      ],
      "codigo_empresa": "0501",
      "id_estacion": "",
      "id_modal": "",
      "tipo": "metro"
    },
    {
      "id": "torre_arias",
      "name": "TORRE ARIAS",
      "lat": 40.443743296414574,
      "lon": -3.616994705938824,
      "lines": [
        "5"
      ],
      "codigo_empresa": "0502",
      "id_estacion": "",
      "id_modal": "",
      "tipo": "metro"
    },
    {
      "id": "suanzes",
      "name": "SUANZES",
      "lat": 40.44085124307767,
      "lon": -3.6268397441771407,
      "lines": [
        "5"
      ],
      "codigo_empresa": "0503",
      "id_estacion": "",
      "id_modal": "",
      "tipo": "metro"
    },
    {
      "id": "ciudad_lineal",
      "name": "CIUDAD LINEAL",
      "lat": 40.4380484084201,
      "lon": -3.638157588345499,
      "lines": [
        "5"
      ],
      "codigo_empresa": "0504",
      "id_estacion": "",
      "id_modal": "",
      "tipo": "metro"
    },
    {
      "id": "quintana",
      "name": "QUINTANA",
      "lat": 40.43358494164949,
      "lon": -3.6473622420983225,
      "lines": [
        "5"
      ],
      "codigo_empresa": "0506",
      "id_estacion": "",
      "id_modal": "",
      "tipo": "metro"
    },
    {
      "id": "el_carmen",
      "name": "EL CARMEN",
      "lat": 40.43189329209465,
      "lon": -3.6575725472596625,
      "lines": [
        "5"
      ],
      "codigo_empresa": "0507",
      "id_estacion": "",
      "id_modal": "",
      "tipo": "metro"
    },
    {
      "id": "nu_ez_de_balboa",
      "name": "NUÑEZ DE BALBOA",
      "lat": 40.43278060804376,
      "lon": -3.6825799144836044,
      "lines": [
        "5"
      ],
      "codigo_empresa": "0510",
      "id_estacion": "",
      "id_modal": "",
      "tipo": "metro"
    },
    {
      "id": "ruben_dario",
      "name": "RUBEN DARIO",
      "lat": 40.43315793720963,
      "lon": -3.689541598575491,
      "lines": [
        "5"
      ],
      "codigo_empresa": "0511",
      "id_estacion": "",
      "id_modal": "",
      "tipo": "metro"
    },
    {
      "id": "la_latina",
      "name": "LA LATINA",
      "lat": 40.41128032868688,
      "lon": -3.708160868519015,
      "lines": [
        "5"
      ],
      "codigo_empresa": "0517",
      "id_estacion": "",
      "id_modal": "",
      "tipo": "metro"
    },
    {
      "id": "marques_de_vadillo",
      "name": "MARQUES DE VADILLO",
      "lat": 40.397356290324495,
      "lon": -3.7159600765140515,
      "lines": [
        "5"
      ],
      "codigo_empresa": "0521",
      "id_estacion": "",
      "id_modal": "",
      "tipo": "metro"
    },
    {
      "id": "urgel",
      "name": "URGEL",
      "lat": 40.39335176845625,
      "lon": -3.7236048242936626,
      "lines": [
        "5"
      ],
      "codigo_empresa": "0522",
      "id_estacion": "",
      "id_modal": "",
      "tipo": "metro"
    },
    {
      "id": "vista_alegre",
      "name": "VISTA ALEGRE",
      "lat": 40.38884702575721,
      "lon": -3.7398245500065785,
      "lines": [
        "5"
      ],
      "codigo_empresa": "0524",
      "id_estacion": "",
      "id_modal": "",
      "tipo": "metro"
    },
    {
      "id": "carabanchel",
      "name": "CARABANCHEL",
      "lat": 40.38782701996798,
      "lon": -3.744870521041383,
      "lines": [
        "5"
      ],
      "codigo_empresa": "0525",
      "id_estacion": "",
      "id_modal": "",
      "tipo": "metro"
    },
    {
      "id": "eugenia_de_montijo",
      "name": "EUGENIA DE MONTIJO",
      "lat": 40.38438579717573,
      "lon": -3.7512111847828216,
      "lines": [
        "5"
      ],
      "codigo_empresa": "0526",
      "id_estacion": "",
      "id_modal": "",
      "tipo": "metro"
    },
    {
      "id": "gran_via",
      "name": "GRAN VIA",
      "lat": 40.419986617735724,
      "lon": -3.701803930135661,
      "lines": [
        "5"
      ],
      "codigo_empresa": "0514",
      "id_estacion": "",
      "id_modal": "",
      "tipo": "metro"
    },
    {
      "id": "el_capricho",
      "name": "EL CAPRICHO",
      "lat": 40.453468332704944,
      "lon": -3.5940116576957872,
      "lines": [
        "5"
      ],
      "codigo_empresa": "0551",
      "id_estacion": "",
      "id_modal": "",
      "tipo": "metro"
    },
    {
      "id": "casa_de_campo",
      "name": "CASA DE CAMPO",
      "lat": 40.403242270835875,
      "lon": -3.761013667626499,
      "lines": [
        "5"
      ],
      "codigo_empresa": "0530",
      "id_estacion": "",
      "id_modal": "",
      "tipo": "metro"
    },
    {
      "id": "pueblo_nuevo",
      "name": "PUEBLO NUEVO",
      "lat": 40.43569283899227,
      "lon": -3.64282326413925,
      "lines": [
        "5"
      ],
      "codigo_empresa": "0505",
      "id_estacion": "",
      "id_modal": "",
      "tipo": "metro"
    },
    {
      "id": "alonso_martinez",
      "name": "ALONSO MARTINEZ",
      "lat": 40.42828258137045,
      "lon": -3.6950229019466976,
      "lines": [
        "5"
      ],
      "codigo_empresa": "0512",
      "id_estacion": "",
      "id_modal": "",
      "tipo": "metro"
    },
    {
      "id": "diego_de_leon",
      "name": "DIEGO DE LEON",
      "lat": 40.43235319427283,
      "lon": -3.674261712530584,
      "lines": [
        "5"
      ],
      "codigo_empresa": "0509",
      "id_estacion": "",
      "id_modal": "",
      "tipo": "metro"
    },
    {
      "id": "ventas",
      "name": "VENTAS",
      "lat": 40.430884803194914,
      "lon": -3.6636058417273496,
      "lines": [
        "5"
      ],
      "codigo_empresa": "0508",
      "id_estacion": "",
      "id_modal": "",
      "tipo": "metro"
    },
    {
      "id": "piramides",
      "name": "PIRAMIDES",
      "lat": 40.40259816545889,
      "lon": -3.7113771228123165,
      "lines": [
        "5"
      ],
      "codigo_empresa": "0520",
      "id_estacion": "",
      "id_modal": "",
      "tipo": "metro"
    },
    {
      "id": "puerta_de_toledo",
      "name": "PUERTA DE TOLEDO",
      "lat": 40.40703575446187,
      "lon": -3.711046450767629,
      "lines": [
        "5"
      ],
      "codigo_empresa": "0518",
      "id_estacion": "",
      "id_modal": "",
      "tipo": "metro"
    },
    {
      "id": "arg_elles",
      "name": "ARGÜELLES",
      "lat": 40.430531839640196,
      "lon": -3.7159561654441755,
      "lines": [
        "6"
      ],
      "codigo_empresa": "0624",
      "id_estacion": "",
      "id_modal": "",
      "tipo": "metro"
    },
    {
      "id": "plaza_eliptica",
      "name": "PLAZA ELIPTICA",
      "lat": 40.38460005540756,
      "lon": -3.7183705578119546,
      "lines": [
        "6"
      ],
      "codigo_empresa": "0605",
      "id_estacion": "",
      "id_modal": "",
      "tipo": "metro"
    },
    {
      "id": "avenida_de_america",
      "name": "AVENIDA DE AMERICA",
      "lat": 40.43803528785048,
      "lon": -3.676583431725225,
      "lines": [
        "6"
      ],
      "codigo_empresa": "0616",
      "id_estacion": "",
      "id_modal": "",
      "tipo": "metro"
    },
    {
      "id": "cuatro_caminos",
      "name": "CUATRO CAMINOS",
      "lat": 40.44697459690457,
      "lon": -3.703868699286015,
      "lines": [
        "6"
      ],
      "codigo_empresa": "0619",
      "id_estacion": "",
      "id_modal": "",
      "tipo": "metro"
    },
    {
      "id": "manuel_becerra",
      "name": "MANUEL BECERRA",
      "lat": 40.42790447983754,
      "lon": -3.6692051807116384,
      "lines": [
        "6"
      ],
      "codigo_empresa": "0614",
      "id_estacion": "",
      "id_modal": "",
      "tipo": "metro"
    },
    {
      "id": "nuevos_ministerios",
      "name": "NUEVOS MINISTERIOS",
      "lat": 40.446621215182525,
      "lon": -3.6924064585114573,
      "lines": [
        "6"
      ],
      "codigo_empresa": "0618",
      "id_estacion": "",
      "id_modal": "",
      "tipo": "metro"
    },
    {
      "id": "carpetana",
      "name": "CARPETANA",
      "lat": 40.39270189946354,
      "lon": -3.740993676713557,
      "lines": [
        "6"
      ],
      "codigo_empresa": "0602",
      "id_estacion": "",
      "id_modal": "",
      "tipo": "metro"
    },
    {
      "id": "opa_el",
      "name": "OPAÑEL",
      "lat": 40.38690440425559,
      "lon": -3.723133621163613,
      "lines": [
        "6"
      ],
      "codigo_empresa": "0604",
      "id_estacion": "",
      "id_modal": "",
      "tipo": "metro"
    },
    {
      "id": "usera",
      "name": "USERA",
      "lat": 40.38709669326968,
      "lon": -3.706895642789324,
      "lines": [
        "6"
      ],
      "codigo_empresa": "0606",
      "id_estacion": "",
      "id_modal": "",
      "tipo": "metro"
    },
    {
      "id": "conde_de_casal",
      "name": "CONDE DE CASAL",
      "lat": 40.40696795047538,
      "lon": -3.670408067233978,
      "lines": [
        "6"
      ],
      "codigo_empresa": "0611",
      "id_estacion": "",
      "id_modal": "",
      "tipo": "metro"
    },
    {
      "id": "o_donnell",
      "name": "O'DONNELL",
      "lat": 40.42288842464461,
      "lon": -3.6685951462919535,
      "lines": [
        "6"
      ],
      "codigo_empresa": "0613",
      "id_estacion": "",
      "id_modal": "",
      "tipo": "metro"
    },
    {
      "id": "vicente_aleixandre",
      "name": "VICENTE ALEIXANDRE",
      "lat": 40.44643639934855,
      "lon": -3.719426711968892,
      "lines": [
        "6"
      ],
      "codigo_empresa": "0621",
      "id_estacion": "",
      "id_modal": "",
      "tipo": "metro"
    },
    {
      "id": "puerta_del_angel",
      "name": "PUERTA DEL ANGEL",
      "lat": 40.41389889439627,
      "lon": -3.7272404518154256,
      "lines": [
        "6"
      ],
      "codigo_empresa": "0626",
      "id_estacion": "",
      "id_modal": "",
      "tipo": "metro"
    },
    {
      "id": "alto_de_extremadura",
      "name": "ALTO DE EXTREMADURA",
      "lat": 40.40992601698508,
      "lon": -3.7389361815722615,
      "lines": [
        "6"
      ],
      "codigo_empresa": "0627",
      "id_estacion": "",
      "id_modal": "",
      "tipo": "metro"
    },
    {
      "id": "pacifico",
      "name": "PACIFICO",
      "lat": 40.402071738555954,
      "lon": -3.6738560384118877,
      "lines": [
        "6"
      ],
      "codigo_empresa": "0610",
      "id_estacion": "",
      "id_modal": "",
      "tipo": "metro"
    },
    {
      "id": "moncloa",
      "name": "MONCLOA",
      "lat": 40.43496631087177,
      "lon": -3.719450010688234,
      "lines": [
        "6"
      ],
      "codigo_empresa": "0623",
      "id_estacion": "",
      "id_modal": "",
      "tipo": "metro"
    },
    {
      "id": "legazpi",
      "name": "LEGAZPI",
      "lat": 40.39115775794032,
      "lon": -3.69505136534669,
      "lines": [
        "6"
      ],
      "codigo_empresa": "0607",
      "id_estacion": "",
      "id_modal": "",
      "tipo": "metro"
    },
    {
      "id": "mendez_alvaro",
      "name": "MENDEZ ALVARO",
      "lat": 40.39537559939098,
      "lon": -3.6781415070830423,
      "lines": [
        "6"
      ],
      "codigo_empresa": "0609",
      "id_estacion": "",
      "id_modal": "",
      "tipo": "metro"
    },
    {
      "id": "oporto",
      "name": "OPORTO",
      "lat": 40.388467519483676,
      "lon": -3.731264112878039,
      "lines": [
        "6"
      ],
      "codigo_empresa": "0603",
      "id_estacion": "",
      "id_modal": "",
      "tipo": "metro"
    },
    {
      "id": "sainz_de_baranda",
      "name": "SAINZ DE BARANDA",
      "lat": 40.41506853886662,
      "lon": -3.669514139418049,
      "lines": [
        "6"
      ],
      "codigo_empresa": "0612",
      "id_estacion": "",
      "id_modal": "",
      "tipo": "metro"
    },
    {
      "id": "principe_pio",
      "name": "PRINCIPE PIO",
      "lat": 40.42106884438364,
      "lon": -3.7203235591422588,
      "lines": [
        "6"
      ],
      "codigo_empresa": "0625",
      "id_estacion": "",
      "id_modal": "",
      "tipo": "metro"
    },
    {
      "id": "laguna",
      "name": "LAGUNA",
      "lat": 40.39922962471062,
      "lon": -3.744288718056632,
      "lines": [
        "6"
      ],
      "codigo_empresa": "0601",
      "id_estacion": "",
      "id_modal": "",
      "tipo": "metro"
    },
    {
      "id": "republica_argentina",
      "name": "REPUBLICA ARGENTINA",
      "lat": 40.44379456449,
      "lon": -3.6840618670570504,
      "lines": [
        "6"
      ],
      "codigo_empresa": "0617",
      "id_estacion": "",
      "id_modal": "",
      "tipo": "metro"
    },
    {
      "id": "ciudad_universitaria",
      "name": "CIUDAD UNIVERSITARIA",
      "lat": 40.44356467694622,
      "lon": -3.726784810097875,
      "lines": [
        "6"
      ],
      "codigo_empresa": "0622",
      "id_estacion": "",
      "id_modal": "",
      "tipo": "metro"
    },
    {
      "id": "guzman_el_bueno",
      "name": "GUZMAN EL BUENO",
      "lat": 40.44636607914371,
      "lon": -3.7122940370605675,
      "lines": [
        "6"
      ],
      "codigo_empresa": "0620",
      "id_estacion": "",
      "id_modal": "",
      "tipo": "metro"
    },
    {
      "id": "lucero",
      "name": "LUCERO",
      "lat": 40.405099650652225,
      "lon": -3.745336959451509,
      "lines": [
        "6"
      ],
      "codigo_empresa": "0628",
      "id_estacion": "",
      "id_modal": "",
      "tipo": "metro"
    },
    {
      "id": "diego_de_leon",
      "name": "DIEGO DE LEON",
      "lat": 40.432947682446056,
      "lon": -3.6729385667724195,
      "lines": [
        "6"
      ],
      "codigo_empresa": "0615",
      "id_estacion": "",
      "id_modal": "",
      "tipo": "metro"
    },
    {
      "id": "arganzuela_planetario",
      "name": "ARGANZUELA-PLANETARIO",
      "lat": 40.39310270492071,
      "lon": -3.688640347447094,
      "lines": [
        "6"
      ],
      "codigo_empresa": "0608",
      "id_estacion": "",
      "id_modal": "",
      "tipo": "metro"
    },
    {
      "id": "arg_elles",
      "name": "ARGÜELLES",
      "lat": 40.430531839640196,
      "lon": -3.7159561654441755,
      "lines": [
        "6"
      ],
      "codigo_empresa": "0624",
      "id_estacion": "",
      "id_modal": "",
      "tipo": "metro"
    },
    {
      "id": "plaza_eliptica",
      "name": "PLAZA ELIPTICA",
      "lat": 40.38460005540756,
      "lon": -3.7183705578119546,
      "lines": [
        "6"
      ],
      "codigo_empresa": "0605",
      "id_estacion": "",
      "id_modal": "",
      "tipo": "metro"
    },
    {
      "id": "avenida_de_america",
      "name": "AVENIDA DE AMERICA",
      "lat": 40.43803528785048,
      "lon": -3.676583431725225,
      "lines": [
        "6"
      ],
      "codigo_empresa": "0616",
      "id_estacion": "",
      "id_modal": "",
      "tipo": "metro"
    },
    {
      "id": "cuatro_caminos",
      "name": "CUATRO CAMINOS",
      "lat": 40.44697459690457,
      "lon": -3.703868699286015,
      "lines": [
        "6"
      ],
      "codigo_empresa": "0619",
      "id_estacion": "",
      "id_modal": "",
      "tipo": "metro"
    },
    {
      "id": "manuel_becerra",
      "name": "MANUEL BECERRA",
      "lat": 40.42790447983754,
      "lon": -3.6692051807116384,
      "lines": [
        "6"
      ],
      "codigo_empresa": "0614",
      "id_estacion": "",
      "id_modal": "",
      "tipo": "metro"
    },
    {
      "id": "nuevos_ministerios",
      "name": "NUEVOS MINISTERIOS",
      "lat": 40.446621215182525,
      "lon": -3.6924064585114573,
      "lines": [
        "6"
      ],
      "codigo_empresa": "0618",
      "id_estacion": "",
      "id_modal": "",
      "tipo": "metro"
    },
    {
      "id": "carpetana",
      "name": "CARPETANA",
      "lat": 40.39270189946354,
      "lon": -3.740993676713557,
      "lines": [
        "6"
      ],
      "codigo_empresa": "0602",
      "id_estacion": "",
      "id_modal": "",
      "tipo": "metro"
    },
    {
      "id": "opa_el",
      "name": "OPAÑEL",
      "lat": 40.38690440425559,
      "lon": -3.723133621163613,
      "lines": [
        "6"
      ],
      "codigo_empresa": "0604",
      "id_estacion": "",
      "id_modal": "",
      "tipo": "metro"
    },
    {
      "id": "usera",
      "name": "USERA",
      "lat": 40.38709669326968,
      "lon": -3.706895642789324,
      "lines": [
        "6"
      ],
      "codigo_empresa": "0606",
      "id_estacion": "",
      "id_modal": "",
      "tipo": "metro"
    },
    {
      "id": "conde_de_casal",
      "name": "CONDE DE CASAL",
      "lat": 40.40696795047538,
      "lon": -3.670408067233978,
      "lines": [
        "6"
      ],
      "codigo_empresa": "0611",
      "id_estacion": "",
      "id_modal": "",
      "tipo": "metro"
    },
    {
      "id": "o_donnell",
      "name": "O'DONNELL",
      "lat": 40.42288842464461,
      "lon": -3.6685951462919535,
      "lines": [
        "6"
      ],
      "codigo_empresa": "0613",
      "id_estacion": "",
      "id_modal": "",
      "tipo": "metro"
    },
    {
      "id": "vicente_aleixandre",
      "name": "VICENTE ALEIXANDRE",
      "lat": 40.44643639934855,
      "lon": -3.719426711968892,
      "lines": [
        "6"
      ],
      "codigo_empresa": "0621",
      "id_estacion": "",
      "id_modal": "",
      "tipo": "metro"
    },
    {
      "id": "puerta_del_angel",
      "name": "PUERTA DEL ANGEL",
      "lat": 40.41389889439627,
      "lon": -3.7272404518154256,
      "lines": [
        "6"
      ],
      "codigo_empresa": "0626",
      "id_estacion": "",
      "id_modal": "",
      "tipo": "metro"
    },
    {
      "id": "alto_de_extremadura",
      "name": "ALTO DE EXTREMADURA",
      "lat": 40.40992601698508,
      "lon": -3.7389361815722615,
      "lines": [
        "6"
      ],
      "codigo_empresa": "0627",
      "id_estacion": "",
      "id_modal": "",
      "tipo": "metro"
    },
    {
      "id": "pacifico",
      "name": "PACIFICO",
      "lat": 40.402071738555954,
      "lon": -3.6738560384118877,
      "lines": [
        "6"
      ],
      "codigo_empresa": "0610",
      "id_estacion": "",
      "id_modal": "",
      "tipo": "metro"
    },
    {
      "id": "moncloa",
      "name": "MONCLOA",
      "lat": 40.43496631087177,
      "lon": -3.719450010688234,
      "lines": [
        "6"
      ],
      "codigo_empresa": "0623",
      "id_estacion": "",
      "id_modal": "",
      "tipo": "metro"
    },
    {
      "id": "legazpi",
      "name": "LEGAZPI",
      "lat": 40.39115775794032,
      "lon": -3.69505136534669,
      "lines": [
        "6"
      ],
      "codigo_empresa": "0607",
      "id_estacion": "",
      "id_modal": "",
      "tipo": "metro"
    },
    {
      "id": "mendez_alvaro",
      "name": "MENDEZ ALVARO",
      "lat": 40.39537559939098,
      "lon": -3.6781415070830423,
      "lines": [
        "6"
      ],
      "codigo_empresa": "0609",
      "id_estacion": "",
      "id_modal": "",
      "tipo": "metro"
    },
    {
      "id": "oporto",
      "name": "OPORTO",
      "lat": 40.388467519483676,
      "lon": -3.731264112878039,
      "lines": [
        "6"
      ],
      "codigo_empresa": "0603",
      "id_estacion": "",
      "id_modal": "",
      "tipo": "metro"
    },
    {
      "id": "sainz_de_baranda",
      "name": "SAINZ DE BARANDA",
      "lat": 40.41506853886662,
      "lon": -3.669514139418049,
      "lines": [
        "6"
      ],
      "codigo_empresa": "0612",
      "id_estacion": "",
      "id_modal": "",
      "tipo": "metro"
    },
    {
      "id": "principe_pio",
      "name": "PRINCIPE PIO",
      "lat": 40.42106884438364,
      "lon": -3.7203235591422588,
      "lines": [
        "6"
      ],
      "codigo_empresa": "0625",
      "id_estacion": "",
      "id_modal": "",
      "tipo": "metro"
    },
    {
      "id": "laguna",
      "name": "LAGUNA",
      "lat": 40.39922962471062,
      "lon": -3.744288718056632,
      "lines": [
        "6"
      ],
      "codigo_empresa": "0601",
      "id_estacion": "",
      "id_modal": "",
      "tipo": "metro"
    },
    {
      "id": "republica_argentina",
      "name": "REPUBLICA ARGENTINA",
      "lat": 40.44379456449,
      "lon": -3.6840618670570504,
      "lines": [
        "6"
      ],
      "codigo_empresa": "0617",
      "id_estacion": "",
      "id_modal": "",
      "tipo": "metro"
    },
    {
      "id": "ciudad_universitaria",
      "name": "CIUDAD UNIVERSITARIA",
      "lat": 40.44356467694622,
      "lon": -3.726784810097875,
      "lines": [
        "6"
      ],
      "codigo_empresa": "0622",
      "id_estacion": "",
      "id_modal": "",
      "tipo": "metro"
    },
    {
      "id": "guzman_el_bueno",
      "name": "GUZMAN EL BUENO",
      "lat": 40.44636607914371,
      "lon": -3.7122940370605675,
      "lines": [
        "6"
      ],
      "codigo_empresa": "0620",
      "id_estacion": "",
      "id_modal": "",
      "tipo": "metro"
    },
    {
      "id": "lucero",
      "name": "LUCERO",
      "lat": 40.405099650652225,
      "lon": -3.745336959451509,
      "lines": [
        "6"
      ],
      "codigo_empresa": "0628",
      "id_estacion": "",
      "id_modal": "",
      "tipo": "metro"
    },
    {
      "id": "diego_de_leon",
      "name": "DIEGO DE LEON",
      "lat": 40.432947682446056,
      "lon": -3.6729385667724195,
      "lines": [
        "6"
      ],
      "codigo_empresa": "0615",
      "id_estacion": "",
      "id_modal": "",
      "tipo": "metro"
    },
    {
      "id": "arganzuela_planetario",
      "name": "ARGANZUELA-PLANETARIO",
      "lat": 40.39310270492071,
      "lon": -3.688640347447094,
      "lines": [
        "6"
      ],
      "codigo_empresa": "0608",
      "id_estacion": "",
      "id_modal": "",
      "tipo": "metro"
    },
    {
      "id": "avenida_de_america",
      "name": "AVENIDA DE AMERICA",
      "lat": 40.43803561557426,
      "lon": -3.676527279518791,
      "lines": [
        "7"
      ],
      "codigo_empresa": "0710",
      "id_estacion": "",
      "id_modal": "",
      "tipo": "metro"
    },
    {
      "id": "cartagena",
      "name": "CARTAGENA",
      "lat": 40.43933749524513,
      "lon": -3.672151601329782,
      "lines": [
        "7"
      ],
      "codigo_empresa": "0709",
      "id_estacion": "",
      "id_modal": "",
      "tipo": "metro"
    },
    {
      "id": "parque_de_las_avenidas",
      "name": "PARQUE DE LAS AVENIDAS",
      "lat": 40.43944760234025,
      "lon": -3.6629705808692217,
      "lines": [
        "7"
      ],
      "codigo_empresa": "0708",
      "id_estacion": "",
      "id_modal": "",
      "tipo": "metro"
    },
    {
      "id": "estadio_metropolitano",
      "name": "ESTADIO METROPOLITANO",
      "lat": 40.43339348409986,
      "lon": -3.6001536542125243,
      "lines": [
        "7"
      ],
      "codigo_empresa": "0751",
      "id_estacion": "",
      "id_modal": "",
      "tipo": "metro"
    },
    {
      "id": "san_blas",
      "name": "SAN BLAS",
      "lat": 40.427991906767446,
      "lon": -3.6154690762577584,
      "lines": [
        "7"
      ],
      "codigo_empresa": "0702",
      "id_estacion": "",
      "id_modal": "",
      "tipo": "metro"
    },
    {
      "id": "simancas",
      "name": "SIMANCAS",
      "lat": 40.4279923730252,
      "lon": -3.625721672941209,
      "lines": [
        "7"
      ],
      "codigo_empresa": "0703",
      "id_estacion": "",
      "id_modal": "",
      "tipo": "metro"
    },
    {
      "id": "garcia_noblejas",
      "name": "GARCIA NOBLEJAS",
      "lat": 40.428423190545146,
      "lon": -3.633299465727318,
      "lines": [
        "7"
      ],
      "codigo_empresa": "0704",
      "id_estacion": "",
      "id_modal": "",
      "tipo": "metro"
    },
    {
      "id": "barrio_de_la_concepcion",
      "name": "BARRIO DE LA CONCEPCION",
      "lat": 40.439099399993054,
      "lon": -3.6520040012947503,
      "lines": [
        "7"
      ],
      "codigo_empresa": "0707",
      "id_estacion": "",
      "id_modal": "",
      "tipo": "metro"
    },
    {
      "id": "gregorio_mara_on",
      "name": "GREGORIO MARAÑON",
      "lat": 40.43825099442897,
      "lon": -3.6914828621190114,
      "lines": [
        "7"
      ],
      "codigo_empresa": "0711",
      "id_estacion": "",
      "id_modal": "",
      "tipo": "metro"
    },
    {
      "id": "alonso_cano",
      "name": "ALONSO CANO",
      "lat": 40.43837537611044,
      "lon": -3.6992456432372576,
      "lines": [
        "7"
      ],
      "codigo_empresa": "0712",
      "id_estacion": "",
      "id_modal": "",
      "tipo": "metro"
    },
    {
      "id": "francos_rodriguez",
      "name": "FRANCOS RODRIGUEZ",
      "lat": 40.45648182077827,
      "lon": -3.712386672198295,
      "lines": [
        "7"
      ],
      "codigo_empresa": "0716",
      "id_estacion": "",
      "id_modal": "",
      "tipo": "metro"
    },
    {
      "id": "antonio_machado",
      "name": "ANTONIO MACHADO",
      "lat": 40.47021772039073,
      "lon": -3.7176948552412226,
      "lines": [
        "7"
      ],
      "codigo_empresa": "0718",
      "id_estacion": "",
      "id_modal": "",
      "tipo": "metro"
    },
    {
      "id": "pe_agrande",
      "name": "PEÑAGRANDE",
      "lat": 40.47592352024965,
      "lon": -3.715824157912478,
      "lines": [
        "7"
      ],
      "codigo_empresa": "0719",
      "id_estacion": "",
      "id_modal": "",
      "tipo": "metro"
    },
    {
      "id": "ascao",
      "name": "ASCAO",
      "lat": 40.4302055301581,
      "lon": -3.64105571498423,
      "lines": [
        "7"
      ],
      "codigo_empresa": "0705",
      "id_estacion": "",
      "id_modal": "",
      "tipo": "metro"
    },
    {
      "id": "pueblo_nuevo",
      "name": "PUEBLO NUEVO",
      "lat": 40.43565851549913,
      "lon": -3.6428229372521685,
      "lines": [
        "7"
      ],
      "codigo_empresa": "0706",
      "id_estacion": "",
      "id_modal": "",
      "tipo": "metro"
    },
    {
      "id": "guzman_el_bueno",
      "name": "GUZMAN EL BUENO",
      "lat": 40.446328896938624,
      "lon": -3.712293644526187,
      "lines": [
        "7"
      ],
      "codigo_empresa": "0715",
      "id_estacion": "",
      "id_modal": "",
      "tipo": "metro"
    },
    {
      "id": "islas_filipinas",
      "name": "ISLAS FILIPINAS",
      "lat": 40.43906820663266,
      "lon": -3.7137286447993536,
      "lines": [
        "7"
      ],
      "codigo_empresa": "0714",
      "id_estacion": "",
      "id_modal": "",
      "tipo": "metro"
    },
    {
      "id": "canal",
      "name": "CANAL",
      "lat": 40.43870250794506,
      "lon": -3.704888988656737,
      "lines": [
        "7"
      ],
      "codigo_empresa": "0713",
      "id_estacion": "",
      "id_modal": "",
      "tipo": "metro"
    },
    {
      "id": "lacoma",
      "name": "LACOMA",
      "lat": 40.485015026073626,
      "lon": -3.723045541550223,
      "lines": [
        "7"
      ],
      "codigo_empresa": "0721",
      "id_estacion": "",
      "id_modal": "",
      "tipo": "metro"
    },
    {
      "id": "avda_de_la_ilustracion",
      "name": "AVDA. DE LA ILUSTRACION",
      "lat": 40.48010261154569,
      "lon": -3.7183982522186554,
      "lines": [
        "7"
      ],
      "codigo_empresa": "0720",
      "id_estacion": "",
      "id_modal": "",
      "tipo": "metro"
    },
    {
      "id": "valdezarza",
      "name": "VALDEZARZA",
      "lat": 40.46482353283605,
      "lon": -3.715972126851418,
      "lines": [
        "7"
      ],
      "codigo_empresa": "0717",
      "id_estacion": "",
      "id_modal": "",
      "tipo": "metro"
    },
    {
      "id": "las_musas",
      "name": "LAS MUSAS",
      "lat": 40.432988127939815,
      "lon": -3.607879514276323,
      "lines": [
        "7"
      ],
      "codigo_empresa": "0701",
      "id_estacion": "",
      "id_modal": "",
      "tipo": "metro"
    },
    {
      "id": "pitis",
      "name": "PITIS",
      "lat": 40.49510584237574,
      "lon": -3.7258912329080798,
      "lines": [
        "7"
      ],
      "codigo_empresa": "0723",
      "id_estacion": "",
      "id_modal": "",
      "tipo": "metro"
    },
    {
      "id": "estadio_metropolitano",
      "name": "ESTADIO METROPOLITANO",
      "lat": 40.43339348409986,
      "lon": -3.6001536542125243,
      "lines": [
        "7"
      ],
      "codigo_empresa": "0751",
      "id_estacion": "",
      "id_modal": "",
      "tipo": "metro"
    },
    {
      "id": "coslada_central",
      "name": "COSLADA CENTRAL",
      "lat": 40.42373620597773,
      "lon": -3.5611923494996556,
      "lines": [
        "7"
      ],
      "codigo_empresa": "0755",
      "id_estacion": "",
      "id_modal": "",
      "tipo": "metro"
    },
    {
      "id": "hospital_del_henares",
      "name": "HOSPITAL DEL HENARES",
      "lat": 40.41761001821852,
      "lon": -3.5345349720982124,
      "lines": [
        "7"
      ],
      "codigo_empresa": "0760",
      "id_estacion": "",
      "id_modal": "",
      "tipo": "metro"
    },
    {
      "id": "la_rambla",
      "name": "LA RAMBLA",
      "lat": 40.42514348413913,
      "lon": -3.5479238333382477,
      "lines": [
        "7"
      ],
      "codigo_empresa": "0756",
      "id_estacion": "",
      "id_modal": "",
      "tipo": "metro"
    },
    {
      "id": "barrio_del_puerto",
      "name": "BARRIO DEL PUERTO",
      "lat": 40.42249687009597,
      "lon": -3.5691884702656647,
      "lines": [
        "7"
      ],
      "codigo_empresa": "0754",
      "id_estacion": "",
      "id_modal": "",
      "tipo": "metro"
    },
    {
      "id": "san_fernando",
      "name": "SAN FERNANDO",
      "lat": 40.42441224966061,
      "lon": -3.5354145225517146,
      "lines": [
        "7"
      ],
      "codigo_empresa": "0757",
      "id_estacion": "",
      "id_modal": "",
      "tipo": "metro"
    },
    {
      "id": "jarama",
      "name": "JARAMA",
      "lat": 40.42295480433805,
      "lon": -3.5254937648988705,
      "lines": [
        "7"
      ],
      "codigo_empresa": "0758",
      "id_estacion": "",
      "id_modal": "",
      "tipo": "metro"
    },
    {
      "id": "henares",
      "name": "HENARES",
      "lat": 40.41776948524124,
      "lon": -3.5271783527904157,
      "lines": [
        "7"
      ],
      "codigo_empresa": "0759",
      "id_estacion": "",
      "id_modal": "",
      "tipo": "metro"
    },
    {
      "id": "avenida_de_america",
      "name": "AVENIDA DE AMERICA",
      "lat": 40.43803561557426,
      "lon": -3.676527279518791,
      "lines": [
        "7"
      ],
      "codigo_empresa": "0710",
      "id_estacion": "",
      "id_modal": "",
      "tipo": "metro"
    },
    {
      "id": "cartagena",
      "name": "CARTAGENA",
      "lat": 40.43933749524513,
      "lon": -3.672151601329782,
      "lines": [
        "7"
      ],
      "codigo_empresa": "0709",
      "id_estacion": "",
      "id_modal": "",
      "tipo": "metro"
    },
    {
      "id": "parque_de_las_avenidas",
      "name": "PARQUE DE LAS AVENIDAS",
      "lat": 40.43944760234025,
      "lon": -3.6629705808692217,
      "lines": [
        "7"
      ],
      "codigo_empresa": "0708",
      "id_estacion": "",
      "id_modal": "",
      "tipo": "metro"
    },
    {
      "id": "estadio_metropolitano",
      "name": "ESTADIO METROPOLITANO",
      "lat": 40.43339348409986,
      "lon": -3.6001536542125243,
      "lines": [
        "7"
      ],
      "codigo_empresa": "0751",
      "id_estacion": "",
      "id_modal": "",
      "tipo": "metro"
    },
    {
      "id": "san_blas",
      "name": "SAN BLAS",
      "lat": 40.427991906767446,
      "lon": -3.6154690762577584,
      "lines": [
        "7"
      ],
      "codigo_empresa": "0702",
      "id_estacion": "",
      "id_modal": "",
      "tipo": "metro"
    },
    {
      "id": "simancas",
      "name": "SIMANCAS",
      "lat": 40.4279923730252,
      "lon": -3.625721672941209,
      "lines": [
        "7"
      ],
      "codigo_empresa": "0703",
      "id_estacion": "",
      "id_modal": "",
      "tipo": "metro"
    },
    {
      "id": "garcia_noblejas",
      "name": "GARCIA NOBLEJAS",
      "lat": 40.428423190545146,
      "lon": -3.633299465727318,
      "lines": [
        "7"
      ],
      "codigo_empresa": "0704",
      "id_estacion": "",
      "id_modal": "",
      "tipo": "metro"
    },
    {
      "id": "barrio_de_la_concepcion",
      "name": "BARRIO DE LA CONCEPCION",
      "lat": 40.439099399993054,
      "lon": -3.6520040012947503,
      "lines": [
        "7"
      ],
      "codigo_empresa": "0707",
      "id_estacion": "",
      "id_modal": "",
      "tipo": "metro"
    },
    {
      "id": "gregorio_mara_on",
      "name": "GREGORIO MARAÑON",
      "lat": 40.43825099442897,
      "lon": -3.6914828621190114,
      "lines": [
        "7"
      ],
      "codigo_empresa": "0711",
      "id_estacion": "",
      "id_modal": "",
      "tipo": "metro"
    },
    {
      "id": "alonso_cano",
      "name": "ALONSO CANO",
      "lat": 40.43837537611044,
      "lon": -3.6992456432372576,
      "lines": [
        "7"
      ],
      "codigo_empresa": "0712",
      "id_estacion": "",
      "id_modal": "",
      "tipo": "metro"
    },
    {
      "id": "francos_rodriguez",
      "name": "FRANCOS RODRIGUEZ",
      "lat": 40.45648182077827,
      "lon": -3.712386672198295,
      "lines": [
        "7"
      ],
      "codigo_empresa": "0716",
      "id_estacion": "",
      "id_modal": "",
      "tipo": "metro"
    },
    {
      "id": "antonio_machado",
      "name": "ANTONIO MACHADO",
      "lat": 40.47021772039073,
      "lon": -3.7176948552412226,
      "lines": [
        "7"
      ],
      "codigo_empresa": "0718",
      "id_estacion": "",
      "id_modal": "",
      "tipo": "metro"
    },
    {
      "id": "pe_agrande",
      "name": "PEÑAGRANDE",
      "lat": 40.47592352024965,
      "lon": -3.715824157912478,
      "lines": [
        "7"
      ],
      "codigo_empresa": "0719",
      "id_estacion": "",
      "id_modal": "",
      "tipo": "metro"
    },
    {
      "id": "ascao",
      "name": "ASCAO",
      "lat": 40.4302055301581,
      "lon": -3.64105571498423,
      "lines": [
        "7"
      ],
      "codigo_empresa": "0705",
      "id_estacion": "",
      "id_modal": "",
      "tipo": "metro"
    },
    {
      "id": "pueblo_nuevo",
      "name": "PUEBLO NUEVO",
      "lat": 40.43565851549913,
      "lon": -3.6428229372521685,
      "lines": [
        "7"
      ],
      "codigo_empresa": "0706",
      "id_estacion": "",
      "id_modal": "",
      "tipo": "metro"
    },
    {
      "id": "guzman_el_bueno",
      "name": "GUZMAN EL BUENO",
      "lat": 40.446328896938624,
      "lon": -3.712293644526187,
      "lines": [
        "7"
      ],
      "codigo_empresa": "0715",
      "id_estacion": "",
      "id_modal": "",
      "tipo": "metro"
    },
    {
      "id": "islas_filipinas",
      "name": "ISLAS FILIPINAS",
      "lat": 40.43906820663266,
      "lon": -3.7137286447993536,
      "lines": [
        "7"
      ],
      "codigo_empresa": "0714",
      "id_estacion": "",
      "id_modal": "",
      "tipo": "metro"
    },
    {
      "id": "canal",
      "name": "CANAL",
      "lat": 40.43870250794506,
      "lon": -3.704888988656737,
      "lines": [
        "7"
      ],
      "codigo_empresa": "0713",
      "id_estacion": "",
      "id_modal": "",
      "tipo": "metro"
    },
    {
      "id": "lacoma",
      "name": "LACOMA",
      "lat": 40.485015026073626,
      "lon": -3.723045541550223,
      "lines": [
        "7"
      ],
      "codigo_empresa": "0721",
      "id_estacion": "",
      "id_modal": "",
      "tipo": "metro"
    },
    {
      "id": "avda_de_la_ilustracion",
      "name": "AVDA. DE LA ILUSTRACION",
      "lat": 40.48010261154569,
      "lon": -3.7183982522186554,
      "lines": [
        "7"
      ],
      "codigo_empresa": "0720",
      "id_estacion": "",
      "id_modal": "",
      "tipo": "metro"
    },
    {
      "id": "valdezarza",
      "name": "VALDEZARZA",
      "lat": 40.46482353283605,
      "lon": -3.715972126851418,
      "lines": [
        "7"
      ],
      "codigo_empresa": "0717",
      "id_estacion": "",
      "id_modal": "",
      "tipo": "metro"
    },
    {
      "id": "las_musas",
      "name": "LAS MUSAS",
      "lat": 40.432988127939815,
      "lon": -3.607879514276323,
      "lines": [
        "7"
      ],
      "codigo_empresa": "0701",
      "id_estacion": "",
      "id_modal": "",
      "tipo": "metro"
    },
    {
      "id": "pitis",
      "name": "PITIS",
      "lat": 40.49510584237574,
      "lon": -3.7258912329080798,
      "lines": [
        "7"
      ],
      "codigo_empresa": "0723",
      "id_estacion": "",
      "id_modal": "",
      "tipo": "metro"
    },
    {
      "id": "estadio_metropilitano",
      "name": "ESTADIO METROPILITANO",
      "lat": 40.43339348409986,
      "lon": -3.6001536542125243,
      "lines": [
        "7"
      ],
      "codigo_empresa": "0751",
      "id_estacion": "",
      "id_modal": "",
      "tipo": "metro"
    },